# message_name [message contents] ipc_timestamp ipc_hostname logger_timestamp
# message formats defined: PARAM SYNC ODOM FLASER RLASER TRUEPOS 
# PARAM param_name param_value
# SYNC tagname
# ODOM x y theta tv rv accel
# FLASER num_readings [range_readings] x y theta odom_x odom_y odom_theta
# RLASER num_readings [range_readings] x y theta odom_x odom_y odom_theta
# TRUEPOS true_x true_y true_theta odom_x odom_y odom_theta
# NMEA-GGA utc latitude lat_orient longitude long_orient gps_quality num_sattelites hdop sea_level alitude geo_sea_level geo_sep data_age
PARAM robot_use_laser on nohost 0
PARAM simulator_num_readings 180 nohost 0
PARAM robot_frontlaser_offset 0.0 nohost 0
PARAM robot_rearlaser_offset 0.0 nohost 0
ODOM 0.000000 0.000000 0.000000 0.000000 0.000000 0.000000 1780775126.634932 nohost 2.601673
ODOM 0.000000 0.000000 0.000000 0.000000 0.000000 0.000000 1780775126.685802 nohost 2.651352
FLASER 180 50.00 50.00 50.00 50.00 50.00 50.00 50.00 50.00 50.00 50.00 50.00 50.00 50.00 50.00 50.00 50.00 50.00 50.00 50.00 50.00 50.00 50.00 50.00 50.00 50.00 50.00 50.00 50.00 50.00 50.00 50.00 50.00 50.00 50.00 50.00 50.00 50.00 50.00 50.00 50.00 50.00 50.00 50.00 50.00 50.00 50.00 50.00 50.00 50.00 50.00 50.00 50.00 50.00 50.00 1.00 1.13 1.15 1.17 1.21 1.23 50.00 50.00 50.00 1.42 0.91 0.90 0.90 0.93 1.28 1.28 0.98 0.99 1.02 1.35 1.34 1.34 1.39 2.18 1.85 1.83 1.85 4.93 0.21 0.25 0.32 0.34 0.37 4.88 5.24 2.91 2.90 2.90 2.89 2.88 0.32 0.31 0.28 0.25 0.23 2.87 2.19 2.88 1.52 2.90 2.93 2.94 50.00 1.21 1.15 2.83 3.10 1.12 3.18 1.30 1.29 1.28 1.27 1.26 50.00 1.05 1.04 50.00 50.00 50.00 50.00 50.00 50.00 5.10 50.00 50.00 50.00 50.00 50.00 50.00 50.00 50.00 50.00 50.00 50.00 50.00 50.00 50.00 50.00 50.00 50.00 50.00 50.00 50.00 50.00 50.00 50.00 50.00 50.00 50.00 50.00 50.00 50.00 50.00 50.00 50.00 50.00 50.00 50.00 50.00 50.00 50.00 50.00 50.00 50.00 50.00 50.00 50.00 50.00 50.00 50.00 50.00 50.00 50.00 50.00 50.00 0.000000 0.000000 0.000000 0.000000 0.000000 0.000000 1780775126.571395 nohost 2.667648
FLASER 180 50.00 50.00 50.00 50.00 50.00 50.00 50.00 50.00 50.00 50.00 50.00 50.00 50.00 50.00 50.00 50.00 50.00 50.00 50.00 50.00 50.00 50.00 50.00 50.00 50.00 50.00 50.00 50.00 50.00 50.00 50.00 50.00 50.00 50.00 50.00 50.00 50.00 50.00 50.00 50.00 50.00 50.00 50.00 50.00 50.00 50.00 50.00 50.00 50.00 50.00 50.00 50.00 50.00 50.00 1.00 1.13 1.15 1.17 1.21 1.23 50.00 50.00 50.00 1.42 0.91 0.90 0.90 0.93 1.28 1.28 0.98 0.99 1.02 1.35 1.34 1.34 1.39 2.18 1.85 1.83 1.85 4.93 0.20 0.25 0.32 0.34 0.37 4.88 5.24 2.91 2.90 2.90 2.89 2.88 0.32 0.31 0.28 0.25 0.23 2.87 2.19 2.88 1.52 2.90 2.93 2.94 50.00 1.21 1.15 2.83 3.10 1.12 3.18 1.30 1.29 1.28 1.27 1.26 50.00 1.05 1.04 50.00 50.00 50.00 50.00 50.00 50.00 5.10 50.00 50.00 50.00 50.00 50.00 50.00 50.00 50.00 50.00 50.00 50.00 50.00 50.00 50.00 50.00 50.00 50.00 50.00 50.00 50.00 50.00 50.00 50.00 50.00 50.00 50.00 50.00 50.00 50.00 50.00 50.00 50.00 50.00 50.00 50.00 50.00 50.00 50.00 50.00 50.00 50.00 50.00 50.00 50.00 50.00 50.00 50.00 50.00 50.00 50.00 50.00 50.00 0.000000 0.000000 0.000000 0.000000 0.000000 0.000000 1780775126.571395 nohost 2.668257
FLASER 180 50.00 50.00 50.00 50.00 50.00 50.00 50.00 50.00 50.00 50.00 50.00 50.00 50.00 50.00 50.00 50.00 50.00 50.00 50.00 50.00 50.00 50.00 50.00 50.00 50.00 50.00 50.00 50.00 50.00 50.00 50.00 50.00 50.00 50.00 50.00 50.00 50.00 50.00 50.00 50.00 50.00 50.00 50.00 50.00 50.00 50.00 50.00 50.00 50.00 50.00 50.00 50.00 50.00 50.00 1.00 1.13 1.15 1.17 1.21 1.23 50.00 50.00 50.00 1.42 0.91 0.90 0.90 0.93 1.28 1.28 0.98 0.99 1.02 1.35 1.34 1.34 1.39 2.18 1.85 1.83 1.85 4.93 0.21 0.25 0.32 0.34 0.37 4.88 5.24 2.91 2.90 2.90 2.89 2.88 0.32 0.31 0.28 0.25 0.23 2.87 2.19 2.88 1.52 2.90 2.93 2.94 50.00 1.21 1.15 2.83 3.10 1.12 3.18 1.30 1.29 1.28 1.27 1.26 50.00 1.05 1.04 50.00 50.00 50.00 50.00 50.00 50.00 5.10 50.00 50.00 50.00 50.00 50.00 50.00 50.00 50.00 50.00 50.00 50.00 50.00 50.00 50.00 50.00 50.00 50.00 50.00 50.00 50.00 50.00 50.00 50.00 50.00 50.00 50.00 50.00 50.00 50.00 50.00 50.00 50.00 50.00 50.00 50.00 50.00 50.00 50.00 50.00 50.00 50.00 50.00 50.00 50.00 50.00 50.00 50.00 50.00 50.00 50.00 50.00 50.00 0.000000 0.000000 0.000000 0.000000 0.000000 0.000000 1780775126.571395 nohost 2.668689
FLASER 180 50.00 50.00 50.00 50.00 50.00 50.00 50.00 50.00 50.00 50.00 50.00 50.00 50.00 50.00 50.00 50.00 50.00 50.00 50.00 50.00 50.00 50.00 50.00 50.00 50.00 50.00 50.00 50.00 50.00 50.00 50.00 50.00 50.00 50.00 50.00 50.00 50.00 50.00 50.00 50.00 50.00 50.00 50.00 50.00 50.00 50.00 50.00 50.00 50.00 50.00 50.00 50.00 50.00 50.00 1.00 1.13 1.15 1.17 1.21 1.23 50.00 50.00 50.00 1.42 0.91 0.90 0.90 0.93 1.28 1.28 0.98 0.99 1.02 1.35 1.34 1.34 1.39 2.18 1.85 1.83 1.85 4.93 0.20 0.25 0.32 0.34 0.37 4.88 5.24 2.91 2.90 2.90 2.89 2.88 0.32 0.31 0.28 0.25 0.23 2.87 2.19 2.88 1.52 2.90 2.93 2.94 50.00 1.21 1.15 2.83 3.10 1.12 3.18 1.30 1.29 1.28 1.27 1.26 50.00 1.05 1.04 50.00 50.00 50.00 50.00 50.00 50.00 5.10 50.00 50.00 50.00 50.00 50.00 50.00 50.00 50.00 50.00 50.00 50.00 50.00 50.00 50.00 50.00 50.00 50.00 50.00 50.00 50.00 50.00 50.00 50.00 50.00 50.00 50.00 50.00 50.00 50.00 50.00 50.00 50.00 50.00 50.00 50.00 50.00 50.00 50.00 50.00 50.00 50.00 50.00 50.00 50.00 50.00 50.00 50.00 50.00 50.00 50.00 50.00 50.00 0.000000 0.000000 0.000000 0.000000 0.000000 0.000000 1780775126.571395 nohost 2.669142
ODOM 0.000000 0.000000 0.000000 0.000000 0.000000 0.000000 1780775126.735145 nohost 2.700399
ODOM 0.000000 0.000000 0.000000 0.000000 0.000000 0.000000 1780775126.785880 nohost 2.751560
FLASER 180 50.00 50.00 50.00 50.00 50.00 50.00 50.00 50.00 50.00 50.00 50.00 50.00 50.00 50.00 50.00 50.00 50.00 50.00 50.00 50.00 50.00 50.00 50.00 50.00 50.00 50.00 50.00 50.00 50.00 50.00 50.00 50.00 50.00 50.00 50.00 50.00 50.00 50.00 50.00 50.00 50.00 50.00 50.00 50.00 50.00 50.00 50.00 50.00 50.00 50.00 50.00 50.00 50.00 50.00 1.09 1.12 1.14 1.17 1.19 1.23 50.00 50.00 50.00 1.41 0.90 0.90 0.90 0.93 1.25 1.25 0.98 0.98 1.02 1.35 1.33 1.34 1.38 2.18 1.84 1.82 1.83 4.89 0.20 0.24 0.32 0.34 5.40 4.87 5.24 2.90 0.41 2.89 2.88 0.37 0.32 0.32 0.28 0.25 0.23 2.86 2.18 2.87 1.45 2.89 2.92 2.94 1.19 1.16 1.15 2.82 1.10 1.10 3.18 50.00 1.28 1.27 1.27 1.26 50.00 1.05 1.04 50.00 50.00 50.00 50.00 50.00 50.00 5.05 50.00 50.00 50.00 50.00 50.00 50.00 50.00 50.00 50.00 50.00 50.00 50.00 50.00 50.00 50.00 50.00 50.00 50.00 50.00 50.00 50.00 50.00 50.00 50.00 50.00 50.00 50.00 50.00 50.00 50.00 50.00 50.00 50.00 50.00 50.00 50.00 50.00 50.00 50.00 50.00 50.00 50.00 50.00 50.00 50.00 50.00 50.00 50.00 50.00 50.00 50.00 50.00 0.000000 0.000000 0.000000 0.000000 0.000000 0.000000 1780775126.669889 nohost 2.765997
FLASER 180 50.00 50.00 50.00 50.00 50.00 50.00 50.00 50.00 50.00 50.00 50.00 50.00 50.00 50.00 50.00 50.00 50.00 50.00 50.00 50.00 50.00 50.00 50.00 50.00 50.00 50.00 50.00 50.00 50.00 50.00 50.00 50.00 50.00 50.00 50.00 50.00 50.00 50.00 50.00 50.00 50.00 50.00 50.00 50.00 50.00 50.00 50.00 50.00 50.00 50.00 50.00 50.00 50.00 50.00 1.09 1.12 1.14 1.17 1.19 1.23 50.00 50.00 50.00 1.41 0.90 0.90 0.90 0.93 1.25 1.25 0.98 0.98 1.02 1.35 1.33 1.34 1.38 2.18 1.84 1.82 1.83 4.89 0.21 0.24 0.32 0.34 5.40 4.87 5.24 2.90 0.41 2.89 2.88 0.37 0.32 0.32 0.28 0.25 0.23 2.86 2.18 2.87 1.45 2.89 2.92 2.94 1.19 1.16 1.15 2.82 1.10 1.10 3.18 50.00 1.28 1.27 1.27 1.26 50.00 1.05 1.04 50.00 50.00 50.00 50.00 50.00 50.00 5.05 50.00 50.00 50.00 50.00 50.00 50.00 50.00 50.00 50.00 50.00 50.00 50.00 50.00 50.00 50.00 50.00 50.00 50.00 50.00 50.00 50.00 50.00 50.00 50.00 50.00 50.00 50.00 50.00 50.00 50.00 50.00 50.00 50.00 50.00 50.00 50.00 50.00 50.00 50.00 50.00 50.00 50.00 50.00 50.00 50.00 50.00 50.00 50.00 50.00 50.00 50.00 50.00 0.000000 0.000000 0.000000 0.000000 0.000000 0.000000 1780775126.669889 nohost 2.766767
FLASER 180 50.00 50.00 50.00 50.00 50.00 50.00 50.00 50.00 50.00 50.00 50.00 50.00 50.00 50.00 50.00 50.00 50.00 50.00 50.00 50.00 50.00 50.00 50.00 50.00 50.00 50.00 50.00 50.00 50.00 50.00 50.00 50.00 50.00 50.00 50.00 50.00 50.00 50.00 50.00 50.00 50.00 50.00 50.00 50.00 50.00 50.00 50.00 50.00 50.00 50.00 50.00 50.00 50.00 50.00 1.09 1.12 1.14 1.17 1.19 1.23 50.00 50.00 50.00 1.41 0.90 0.90 0.90 0.93 1.25 1.25 0.98 0.98 1.02 1.35 1.33 1.34 1.38 2.18 1.84 1.82 1.83 4.89 0.21 0.24 0.32 0.34 5.40 4.87 5.24 2.90 0.41 2.89 2.88 0.37 0.32 0.32 0.28 0.25 0.23 2.86 2.18 2.87 1.45 2.89 2.92 2.94 1.19 1.16 1.15 2.82 1.10 1.10 3.18 50.00 1.28 1.27 1.27 1.26 50.00 1.05 1.04 50.00 50.00 50.00 50.00 50.00 50.00 5.05 50.00 50.00 50.00 50.00 50.00 50.00 50.00 50.00 50.00 50.00 50.00 50.00 50.00 50.00 50.00 50.00 50.00 50.00 50.00 50.00 50.00 50.00 50.00 50.00 50.00 50.00 50.00 50.00 50.00 50.00 50.00 50.00 50.00 50.00 50.00 50.00 50.00 50.00 50.00 50.00 50.00 50.00 50.00 50.00 50.00 50.00 50.00 50.00 50.00 50.00 50.00 50.00 0.000000 0.000000 0.000000 0.000000 0.000000 0.000000 1780775126.669889 nohost 2.767274
FLASER 180 50.00 50.00 50.00 50.00 50.00 50.00 50.00 50.00 50.00 50.00 50.00 50.00 50.00 50.00 50.00 50.00 50.00 50.00 50.00 50.00 50.00 50.00 50.00 50.00 50.00 50.00 50.00 50.00 50.00 50.00 50.00 50.00 50.00 50.00 50.00 50.00 50.00 50.00 50.00 50.00 50.00 50.00 50.00 50.00 50.00 50.00 50.00 50.00 50.00 50.00 50.00 50.00 50.00 50.00 1.09 1.12 1.14 1.17 1.19 1.23 50.00 50.00 50.00 1.41 0.90 0.90 0.90 0.93 1.25 1.25 0.98 0.98 1.02 1.35 1.33 1.34 1.38 2.18 1.84 1.82 1.83 4.89 0.20 0.24 0.32 0.34 5.40 4.87 5.24 2.90 0.41 2.89 2.88 0.37 0.32 0.32 0.28 0.25 0.23 2.86 2.18 2.87 1.45 2.89 2.92 2.94 1.19 1.16 1.15 2.82 1.10 1.10 3.18 50.00 1.28 1.27 1.27 1.26 50.00 1.05 1.04 50.00 50.00 50.00 50.00 50.00 50.00 5.05 50.00 50.00 50.00 50.00 50.00 50.00 50.00 50.00 50.00 50.00 50.00 50.00 50.00 50.00 50.00 50.00 50.00 50.00 50.00 50.00 50.00 50.00 50.00 50.00 50.00 50.00 50.00 50.00 50.00 50.00 50.00 50.00 50.00 50.00 50.00 50.00 50.00 50.00 50.00 50.00 50.00 50.00 50.00 50.00 50.00 50.00 50.00 50.00 50.00 50.00 50.00 50.00 0.000000 0.000000 0.000000 0.000000 0.000000 0.000000 1780775126.669889 nohost 2.767851
FLASER 180 50.00 50.00 50.00 50.00 50.00 50.00 50.00 50.00 50.00 50.00 50.00 50.00 50.00 50.00 50.00 50.00 50.00 50.00 50.00 50.00 50.00 50.00 50.00 50.00 50.00 50.00 50.00 50.00 50.00 50.00 50.00 50.00 50.00 50.00 50.00 50.00 50.00 50.00 50.00 50.00 50.00 50.00 50.00 50.00 50.00 50.00 50.00 50.00 50.00 50.00 50.00 50.00 50.00 1.07 1.09 1.12 1.14 1.17 1.20 50.00 50.00 50.00 50.00 50.00 0.89 0.89 0.90 0.93 1.26 1.26 0.97 0.98 1.68 1.34 0.39 1.33 2.18 2.04 1.83 1.81 1.83 4.87 0.21 0.25 0.32 0.34 0.37 4.88 5.22 2.89 2.89 2.88 2.87 2.87 0.33 2.85 0.28 0.25 0.23 2.17 2.18 2.87 1.49 2.90 2.91 2.94 1.24 1.21 1.18 2.82 3.09 3.15 3.21 1.29 1.28 1.27 1.03 1.25 1.07 1.05 1.03 50.00 50.00 50.00 50.00 50.00 50.00 5.03 50.00 50.00 50.00 50.00 50.00 50.00 50.00 50.00 50.00 50.00 50.00 50.00 50.00 50.00 50.00 50.00 50.00 50.00 50.00 50.00 50.00 50.00 50.00 50.00 50.00 50.00 50.00 50.00 50.00 50.00 50.00 50.00 50.00 50.00 50.00 50.00 50.00 50.00 50.00 50.00 50.00 50.00 50.00 50.00 50.00 50.00 50.00 50.00 50.00 50.00 50.00 50.00 0.000000 0.000000 0.000000 0.000000 0.000000 0.000000 1780775126.768081 nohost 2.867693
FLASER 180 50.00 50.00 50.00 50.00 50.00 50.00 50.00 50.00 50.00 50.00 50.00 50.00 50.00 50.00 50.00 50.00 50.00 50.00 50.00 50.00 50.00 50.00 50.00 50.00 50.00 50.00 50.00 50.00 50.00 50.00 50.00 50.00 50.00 50.00 50.00 50.00 50.00 50.00 50.00 50.00 50.00 50.00 50.00 50.00 50.00 50.00 50.00 50.00 50.00 50.00 50.00 50.00 50.00 1.07 1.09 1.12 1.14 1.17 1.20 50.00 50.00 50.00 50.00 50.00 0.89 0.89 0.90 0.93 1.26 1.26 0.97 0.98 1.68 1.34 0.39 1.33 2.18 2.04 1.83 1.81 1.83 4.87 0.21 0.25 0.32 0.34 0.37 4.88 5.22 2.89 2.89 2.88 2.87 2.87 0.33 2.85 0.28 0.25 0.23 2.17 2.18 2.87 1.49 2.90 2.91 2.94 1.24 1.21 1.18 2.82 3.09 3.15 3.21 1.29 1.28 1.27 1.03 1.25 1.07 1.05 1.03 50.00 50.00 50.00 50.00 50.00 50.00 5.03 50.00 50.00 50.00 50.00 50.00 50.00 50.00 50.00 50.00 50.00 50.00 50.00 50.00 50.00 50.00 50.00 50.00 50.00 50.00 50.00 50.00 50.00 50.00 50.00 50.00 50.00 50.00 50.00 50.00 50.00 50.00 50.00 50.00 50.00 50.00 50.00 50.00 50.00 50.00 50.00 50.00 50.00 50.00 50.00 50.00 50.00 50.00 50.00 50.00 50.00 50.00 50.00 0.000000 0.000000 0.000000 0.000000 0.000000 0.000000 1780775126.768081 nohost 2.868477
FLASER 180 50.00 50.00 50.00 50.00 50.00 50.00 50.00 50.00 50.00 50.00 50.00 50.00 50.00 50.00 50.00 50.00 50.00 50.00 50.00 50.00 50.00 50.00 50.00 50.00 50.00 50.00 50.00 50.00 50.00 50.00 50.00 50.00 50.00 50.00 50.00 50.00 50.00 50.00 50.00 50.00 50.00 50.00 50.00 50.00 50.00 50.00 50.00 50.00 50.00 50.00 50.00 50.00 50.00 1.07 1.09 1.12 1.14 1.17 1.20 50.00 50.00 50.00 50.00 50.00 0.89 0.89 0.90 0.93 1.26 1.26 0.97 0.98 1.68 1.34 0.39 1.33 2.18 2.04 1.83 1.81 1.83 4.87 0.21 0.25 0.32 0.34 0.37 4.88 5.22 2.89 2.89 2.88 2.87 2.87 0.33 2.85 0.28 0.25 0.23 2.17 2.18 2.87 1.49 2.90 2.91 2.94 1.24 1.21 1.18 2.82 3.09 3.15 3.21 1.29 1.28 1.27 1.03 1.25 1.07 1.05 1.03 50.00 50.00 50.00 50.00 50.00 50.00 5.03 50.00 50.00 50.00 50.00 50.00 50.00 50.00 50.00 50.00 50.00 50.00 50.00 50.00 50.00 50.00 50.00 50.00 50.00 50.00 50.00 50.00 50.00 50.00 50.00 50.00 50.00 50.00 50.00 50.00 50.00 50.00 50.00 50.00 50.00 50.00 50.00 50.00 50.00 50.00 50.00 50.00 50.00 50.00 50.00 50.00 50.00 50.00 50.00 50.00 50.00 50.00 50.00 0.000000 0.000000 0.000000 0.000000 0.000000 0.000000 1780775126.768081 nohost 2.869185
FLASER 180 50.00 50.00 50.00 50.00 50.00 50.00 50.00 50.00 50.00 50.00 50.00 50.00 50.00 50.00 50.00 50.00 50.00 50.00 50.00 50.00 50.00 50.00 50.00 50.00 50.00 50.00 50.00 50.00 50.00 50.00 50.00 50.00 50.00 50.00 50.00 50.00 50.00 50.00 50.00 50.00 50.00 50.00 50.00 50.00 50.00 50.00 50.00 50.00 50.00 50.00 50.00 50.00 50.00 1.07 1.09 1.12 1.14 1.17 1.20 50.00 50.00 50.00 50.00 50.00 0.89 0.89 0.90 0.93 1.26 1.26 0.97 0.98 1.68 1.34 0.39 1.33 2.18 2.04 1.83 1.81 1.83 4.87 0.21 0.25 0.32 0.34 0.37 4.88 5.22 2.89 2.89 2.88 2.87 2.87 0.33 2.85 0.28 0.25 0.23 2.17 2.18 2.87 1.49 2.90 2.91 2.94 1.24 1.21 1.18 2.82 3.09 3.15 3.21 1.29 1.28 1.27 1.03 1.25 1.07 1.05 1.03 50.00 50.00 50.00 50.00 50.00 50.00 5.03 50.00 50.00 50.00 50.00 50.00 50.00 50.00 50.00 50.00 50.00 50.00 50.00 50.00 50.00 50.00 50.00 50.00 50.00 50.00 50.00 50.00 50.00 50.00 50.00 50.00 50.00 50.00 50.00 50.00 50.00 50.00 50.00 50.00 50.00 50.00 50.00 50.00 50.00 50.00 50.00 50.00 50.00 50.00 50.00 50.00 50.00 50.00 50.00 50.00 50.00 50.00 50.00 0.000000 0.000000 0.000000 0.000000 0.000000 0.000000 1780775126.768081 nohost 2.869754
FLASER 180 50.00 50.00 50.00 50.00 50.00 50.00 50.00 50.00 50.00 50.00 50.00 50.00 50.00 50.00 50.00 50.00 50.00 50.00 50.00 50.00 50.00 50.00 50.00 50.00 50.00 50.00 50.00 50.00 50.00 50.00 50.00 50.00 50.00 50.00 50.00 50.00 50.00 50.00 50.00 50.00 50.00 50.00 50.00 50.00 50.00 50.00 50.00 50.00 50.00 50.00 50.00 50.00 50.00 1.07 1.10 1.13 1.15 1.17 1.20 50.00 50.00 50.00 50.00 0.88 0.89 0.89 0.90 0.96 1.25 1.25 0.97 0.98 1.35 1.32 1.32 1.33 2.35 2.22 1.81 1.80 1.84 5.58 0.20 0.24 0.32 0.34 0.37 4.91 5.21 2.88 0.41 2.87 2.87 0.37 0.33 0.32 0.28 0.25 0.23 2.17 2.85 2.86 2.87 2.89 2.92 2.93 1.18 1.16 2.82 2.83 1.09 3.17 3.22 1.28 1.28 1.27 1.26 1.26 1.06 1.04 1.03 50.00 50.00 50.00 50.00 50.00 50.00 5.03 50.00 50.00 50.00 50.00 50.00 50.00 50.00 50.00 50.00 50.00 50.00 50.00 50.00 50.00 50.00 50.00 50.00 50.00 50.00 50.00 50.00 50.00 50.00 50.00 50.00 50.00 50.00 50.00 50.00 50.00 50.00 50.00 50.00 50.00 50.00 50.00 50.00 50.00 50.00 50.00 50.00 50.00 50.00 50.00 50.00 50.00 50.00 50.00 50.00 50.00 50.00 50.00 0.000000 0.000000 0.000000 0.000000 0.000000 0.000000 1780775126.863918 nohost 2.965108
FLASER 180 50.00 50.00 50.00 50.00 50.00 50.00 50.00 50.00 50.00 50.00 50.00 50.00 50.00 50.00 50.00 50.00 50.00 50.00 50.00 50.00 50.00 50.00 50.00 50.00 50.00 50.00 50.00 50.00 50.00 50.00 50.00 50.00 50.00 50.00 50.00 50.00 50.00 50.00 50.00 50.00 50.00 50.00 50.00 50.00 50.00 50.00 50.00 50.00 50.00 50.00 50.00 50.00 50.00 1.07 1.10 1.13 1.15 1.17 1.20 50.00 50.00 50.00 50.00 0.88 0.89 0.89 0.90 0.96 1.25 1.25 0.97 0.98 1.35 1.32 1.32 1.33 2.35 2.22 1.81 1.80 1.84 5.58 0.20 0.24 0.32 0.34 0.37 4.91 5.21 2.88 0.41 2.87 2.87 0.37 0.33 0.32 0.28 0.25 0.23 2.17 2.85 2.86 2.87 2.89 2.92 2.93 1.18 1.16 2.82 2.83 1.09 3.17 3.22 1.28 1.28 1.27 1.26 1.26 1.06 1.04 1.03 50.00 50.00 50.00 50.00 50.00 50.00 5.03 50.00 50.00 50.00 50.00 50.00 50.00 50.00 50.00 50.00 50.00 50.00 50.00 50.00 50.00 50.00 50.00 50.00 50.00 50.00 50.00 50.00 50.00 50.00 50.00 50.00 50.00 50.00 50.00 50.00 50.00 50.00 50.00 50.00 50.00 50.00 50.00 50.00 50.00 50.00 50.00 50.00 50.00 50.00 50.00 50.00 50.00 50.00 50.00 50.00 50.00 50.00 50.00 0.000000 0.000000 0.000000 0.000000 0.000000 0.000000 1780775126.863918 nohost 2.965944
FLASER 180 50.00 50.00 50.00 50.00 50.00 50.00 50.00 50.00 50.00 50.00 50.00 50.00 50.00 50.00 50.00 50.00 50.00 50.00 50.00 50.00 50.00 50.00 50.00 50.00 50.00 50.00 50.00 50.00 50.00 50.00 50.00 50.00 50.00 50.00 50.00 50.00 50.00 50.00 50.00 50.00 50.00 50.00 50.00 50.00 50.00 50.00 50.00 50.00 50.00 50.00 50.00 50.00 50.00 1.07 1.10 1.13 1.15 1.17 1.20 50.00 50.00 50.00 50.00 0.88 0.89 0.89 0.90 0.96 1.25 1.25 0.97 0.98 1.35 1.32 1.32 1.33 2.35 2.22 1.81 1.80 1.84 5.58 0.20 0.24 0.32 0.34 0.37 4.91 5.21 2.88 0.41 2.87 2.87 0.37 0.33 0.32 0.28 0.25 0.23 2.17 2.85 2.86 2.87 2.89 2.92 2.93 1.18 1.16 2.82 2.83 1.09 3.17 3.22 1.28 1.28 1.27 1.26 1.26 1.06 1.04 1.03 50.00 50.00 50.00 50.00 50.00 50.00 5.03 50.00 50.00 50.00 50.00 50.00 50.00 50.00 50.00 50.00 50.00 50.00 50.00 50.00 50.00 50.00 50.00 50.00 50.00 50.00 50.00 50.00 50.00 50.00 50.00 50.00 50.00 50.00 50.00 50.00 50.00 50.00 50.00 50.00 50.00 50.00 50.00 50.00 50.00 50.00 50.00 50.00 50.00 50.00 50.00 50.00 50.00 50.00 50.00 50.00 50.00 50.00 50.00 0.000000 0.000000 0.000000 0.000000 0.000000 0.000000 1780775126.863918 nohost 2.966754
FLASER 180 50.00 50.00 50.00 50.00 50.00 50.00 50.00 50.00 50.00 50.00 50.00 50.00 50.00 50.00 50.00 50.00 50.00 50.00 50.00 50.00 50.00 50.00 50.00 50.00 50.00 50.00 50.00 50.00 50.00 50.00 50.00 50.00 50.00 50.00 50.00 50.00 50.00 50.00 50.00 50.00 50.00 50.00 50.00 50.00 50.00 50.00 50.00 50.00 50.00 50.00 50.00 50.00 50.00 1.07 1.10 1.13 1.15 1.17 1.20 50.00 50.00 50.00 50.00 0.88 0.89 0.89 0.90 0.96 1.25 1.25 0.97 0.98 1.35 1.32 1.32 1.33 2.35 2.22 1.81 1.80 1.84 5.58 0.20 0.24 0.32 0.34 0.37 4.91 5.21 2.88 0.41 2.87 2.87 0.37 0.33 0.32 0.28 0.25 0.23 2.17 2.85 2.86 2.87 2.89 2.92 2.93 1.18 1.16 2.82 2.83 1.09 3.17 3.22 1.28 1.28 1.27 1.26 1.26 1.06 1.04 1.03 50.00 50.00 50.00 50.00 50.00 50.00 5.03 50.00 50.00 50.00 50.00 50.00 50.00 50.00 50.00 50.00 50.00 50.00 50.00 50.00 50.00 50.00 50.00 50.00 50.00 50.00 50.00 50.00 50.00 50.00 50.00 50.00 50.00 50.00 50.00 50.00 50.00 50.00 50.00 50.00 50.00 50.00 50.00 50.00 50.00 50.00 50.00 50.00 50.00 50.00 50.00 50.00 50.00 50.00 50.00 50.00 50.00 50.00 50.00 0.000000 0.000000 0.000000 0.000000 0.000000 0.000000 1780775126.863918 nohost 2.967355
FLASER 180 50.00 50.00 50.00 50.00 50.00 50.00 50.00 50.00 50.00 50.00 50.00 50.00 50.00 50.00 50.00 50.00 50.00 50.00 50.00 50.00 50.00 50.00 50.00 50.00 50.00 50.00 50.00 50.00 50.00 50.00 50.00 50.00 50.00 50.00 50.00 50.00 50.00 50.00 50.00 50.00 50.00 50.00 50.00 50.00 50.00 50.00 50.00 50.00 50.00 50.00 50.00 50.00 1.07 1.08 1.11 1.13 1.15 1.18 50.00 50.00 50.00 50.00 1.38 0.87 0.87 0.88 0.90 50.00 1.23 1.24 0.96 1.00 1.31 1.30 1.31 1.33 2.12 1.81 1.79 1.81 4.79 5.57 0.20 0.25 0.33 0.34 4.85 5.60 0.40 2.87 0.41 2.86 2.86 2.84 0.33 0.31 0.28 0.25 0.23 2.84 2.85 1.46 2.87 2.91 2.92 1.19 1.16 1.12 2.81 1.09 1.10 3.19 50.00 1.27 1.28 1.27 1.25 1.26 1.06 1.04 1.03 50.00 50.00 50.00 50.00 50.00 5.02 50.00 50.00 50.00 50.00 50.00 50.00 50.00 50.00 50.00 50.00 50.00 50.00 50.00 50.00 50.00 50.00 50.00 50.00 50.00 50.00 50.00 50.00 50.00 50.00 50.00 50.00 50.00 50.00 50.00 50.00 50.00 50.00 50.00 50.00 50.00 50.00 50.00 50.00 50.00 50.00 50.00 50.00 50.00 50.00 50.00 50.00 50.00 50.00 50.00 50.00 50.00 50.00 50.00 0.000000 0.000000 0.000000 0.000000 0.000000 0.000000 1780775126.961598 nohost 3.064051
FLASER 180 50.00 50.00 50.00 50.00 50.00 50.00 50.00 50.00 50.00 50.00 50.00 50.00 50.00 50.00 50.00 50.00 50.00 50.00 50.00 50.00 50.00 50.00 50.00 50.00 50.00 50.00 50.00 50.00 50.00 50.00 50.00 50.00 50.00 50.00 50.00 50.00 50.00 50.00 50.00 50.00 50.00 50.00 50.00 50.00 50.00 50.00 50.00 50.00 50.00 50.00 50.00 50.00 1.07 1.08 1.11 1.13 1.15 1.18 50.00 50.00 50.00 50.00 1.38 0.87 0.87 0.88 0.90 50.00 1.23 1.24 0.96 1.00 1.31 1.30 1.31 1.33 2.12 1.81 1.79 1.81 4.79 5.57 0.20 0.25 0.33 0.34 4.85 5.60 0.40 2.87 0.41 2.86 2.86 2.84 0.33 0.31 0.28 0.25 0.23 2.84 2.85 1.46 2.87 2.91 2.92 1.19 1.16 1.12 2.81 1.09 1.10 3.19 50.00 1.27 1.28 1.27 1.25 1.26 1.06 1.04 1.03 50.00 50.00 50.00 50.00 50.00 5.02 50.00 50.00 50.00 50.00 50.00 50.00 50.00 50.00 50.00 50.00 50.00 50.00 50.00 50.00 50.00 50.00 50.00 50.00 50.00 50.00 50.00 50.00 50.00 50.00 50.00 50.00 50.00 50.00 50.00 50.00 50.00 50.00 50.00 50.00 50.00 50.00 50.00 50.00 50.00 50.00 50.00 50.00 50.00 50.00 50.00 50.00 50.00 50.00 50.00 50.00 50.00 50.00 50.00 0.000000 0.000000 0.000000 0.000000 0.000000 0.000000 1780775126.961598 nohost 3.065159
ODOM 0.000000 0.000000 0.000000 0.000000 0.000000 0.000000 1780775126.837900 nohost 3.097103
ODOM 0.054978 0.000000 0.000000 1.099557 0.000000 0.000000 1780775127.147401 nohost 3.115499
ODOM 0.054978 0.000000 0.000000 0.000000 0.000000 0.000000 1780775127.164903 nohost 3.131090
ODOM 0.054978 0.000000 0.000000 0.000000 0.000000 0.000000 1780775127.174260 nohost 3.139826
ODOM 0.054978 0.000000 0.000000 0.000000 0.000000 0.000000 1780775127.180464 nohost 3.145596
ODOM 0.054978 0.000000 0.000000 0.000000 0.000000 0.000000 1780775127.186083 nohost 3.151197
ODOM 0.054978 0.000000 0.000000 0.000000 0.000000 0.000000 1780775127.192291 nohost 3.157898
ODOM 0.054978 0.000000 0.000000 0.000000 0.000000 0.000000 1780775127.199123 nohost 3.164193
ODOM 0.054978 0.000000 0.000000 0.000000 0.000000 0.000000 1780775127.236385 nohost 3.201848
ODOM 0.054978 0.000000 0.000000 0.000000 0.000000 0.000000 1780775127.287423 nohost 3.254564
ODOM 0.054978 0.000000 0.000000 0.000000 0.000000 0.000000 1780775127.338698 nohost 3.304892
FLASER 180 50.00 50.00 50.00 50.00 50.00 50.00 50.00 50.00 50.00 50.00 50.00 50.00 50.00 50.00 50.00 50.00 50.00 50.00 50.00 50.00 50.00 50.00 50.00 50.00 50.00 50.00 50.00 50.00 50.00 50.00 50.00 50.00 50.00 50.00 50.00 50.00 50.00 50.00 50.00 50.00 50.00 50.00 50.00 50.00 50.00 50.00 50.00 50.00 50.00 50.00 50.00 50.00 1.07 1.08 1.11 1.13 1.15 1.18 50.00 50.00 50.00 50.00 1.38 0.87 0.87 0.88 0.90 50.00 1.23 1.24 0.96 1.00 1.31 1.30 1.31 1.33 2.12 1.81 1.79 1.81 4.79 5.57 0.20 0.25 0.33 0.34 4.85 5.60 0.40 2.87 0.41 2.86 2.86 2.84 0.33 0.31 0.28 0.25 0.23 2.84 2.85 1.46 2.87 2.91 2.92 1.19 1.16 1.12 2.81 1.09 1.10 3.19 50.00 1.27 1.28 1.27 1.25 1.26 1.06 1.04 1.03 50.00 50.00 50.00 50.00 50.00 5.02 50.00 50.00 50.00 50.00 50.00 50.00 50.00 50.00 50.00 50.00 50.00 50.00 50.00 50.00 50.00 50.00 50.00 50.00 50.00 50.00 50.00 50.00 50.00 50.00 50.00 50.00 50.00 50.00 50.00 50.00 50.00 50.00 50.00 50.00 50.00 50.00 50.00 50.00 50.00 50.00 50.00 50.00 50.00 50.00 50.00 50.00 50.00 50.00 50.00 50.00 50.00 50.00 50.00 0.054978 0.000000 0.000000 0.054978 0.000000 0.000000 1780775126.961598 nohost 3.324039
FLASER 180 50.00 50.00 50.00 50.00 50.00 50.00 50.00 50.00 50.00 50.00 50.00 50.00 50.00 50.00 50.00 50.00 50.00 50.00 50.00 50.00 50.00 50.00 50.00 50.00 50.00 50.00 50.00 50.00 50.00 50.00 50.00 50.00 50.00 50.00 50.00 50.00 50.00 50.00 50.00 50.00 50.00 50.00 50.00 50.00 50.00 50.00 50.00 50.00 50.00 50.00 50.00 50.00 1.07 1.08 1.11 1.13 1.15 1.18 50.00 50.00 50.00 50.00 1.38 0.87 0.87 0.88 0.90 50.00 1.23 1.24 0.98 1.32 1.29 1.29 1.31 2.09 2.17 1.78 1.79 4.74 4.79 5.57 0.21 0.25 0.32 0.35 4.86 0.38 5.49 0.39 0.41 2.86 2.86 2.85 0.33 0.31 0.28 0.25 0.23 2.84 2.84 1.53 2.88 2.90 2.92 1.19 1.16 2.85 1.07 1.08 1.07 3.22 50.00 1.28 1.27 1.27 3.58 1.25 1.05 1.04 1.04 50.00 50.00 50.00 50.00 50.00 4.99 50.00 50.00 50.00 50.00 50.00 50.00 50.00 50.00 50.00 50.00 50.00 50.00 50.00 50.00 50.00 50.00 50.00 50.00 50.00 50.00 50.00 50.00 50.00 50.00 50.00 50.00 50.00 50.00 50.00 50.00 50.00 50.00 50.00 50.00 50.00 50.00 50.00 50.00 50.00 50.00 50.00 50.00 50.00 50.00 50.00 50.00 50.00 50.00 50.00 50.00 50.00 50.00 50.00 0.054978 0.000000 0.000000 0.054978 0.000000 0.000000 1780775126.961598 nohost 3.337110
FLASER 180 50.00 50.00 50.00 50.00 50.00 50.00 50.00 50.00 50.00 50.00 50.00 50.00 50.00 50.00 50.00 50.00 50.00 50.00 50.00 50.00 50.00 50.00 50.00 50.00 50.00 50.00 50.00 50.00 50.00 50.00 50.00 50.00 50.00 50.00 50.00 50.00 50.00 50.00 50.00 50.00 50.00 50.00 50.00 50.00 50.00 50.00 50.00 50.00 50.00 50.00 50.00 50.00 1.07 1.08 1.11 1.13 1.15 1.18 50.00 50.00 50.00 50.00 1.38 0.87 0.87 0.88 0.90 50.00 1.23 1.24 0.96 1.00 1.31 1.30 1.31 1.33 2.12 1.81 1.79 1.81 4.79 5.57 0.20 0.25 0.33 0.34 4.85 5.60 0.40 2.87 0.41 2.86 2.86 2.84 0.33 0.31 0.28 0.25 0.23 2.84 2.85 1.46 2.87 2.91 2.92 1.19 1.16 1.12 2.81 1.09 1.10 3.19 50.00 1.27 1.28 1.27 1.25 1.26 1.06 1.04 1.03 50.00 50.00 50.00 50.00 50.00 5.02 50.00 50.00 50.00 50.00 50.00 50.00 50.00 50.00 50.00 50.00 50.00 50.00 50.00 50.00 50.00 50.00 50.00 50.00 50.00 50.00 50.00 50.00 50.00 50.00 50.00 50.00 50.00 50.00 50.00 50.00 50.00 50.00 50.00 50.00 50.00 50.00 50.00 50.00 50.00 50.00 50.00 50.00 50.00 50.00 50.00 50.00 50.00 50.00 50.00 50.00 50.00 50.00 50.00 0.054978 0.000000 0.000000 0.054978 0.000000 0.000000 1780775126.961598 nohost 3.349173
FLASER 180 50.00 50.00 50.00 50.00 50.00 50.00 50.00 50.00 50.00 50.00 50.00 50.00 50.00 50.00 50.00 50.00 50.00 50.00 50.00 50.00 50.00 50.00 50.00 50.00 50.00 50.00 50.00 50.00 50.00 50.00 50.00 50.00 50.00 50.00 50.00 50.00 50.00 50.00 50.00 50.00 50.00 50.00 50.00 50.00 50.00 50.00 50.00 50.00 50.00 50.00 50.00 50.00 1.07 1.08 1.11 1.13 1.15 1.18 50.00 50.00 50.00 50.00 1.38 0.87 0.87 0.88 0.90 50.00 1.23 1.24 0.98 1.32 1.29 1.29 1.31 2.09 2.17 1.78 1.79 4.74 4.79 5.57 0.21 0.25 0.32 0.35 4.86 0.38 5.49 0.39 0.41 2.86 2.86 2.85 0.33 0.31 0.28 0.25 0.23 2.84 2.84 1.53 2.88 2.90 2.92 1.19 1.16 2.85 1.07 1.08 1.07 3.22 50.00 1.28 1.27 1.27 3.58 1.25 1.05 1.04 1.04 50.00 50.00 50.00 50.00 50.00 4.99 50.00 50.00 50.00 50.00 50.00 50.00 50.00 50.00 50.00 50.00 50.00 50.00 50.00 50.00 50.00 50.00 50.00 50.00 50.00 50.00 50.00 50.00 50.00 50.00 50.00 50.00 50.00 50.00 50.00 50.00 50.00 50.00 50.00 50.00 50.00 50.00 50.00 50.00 50.00 50.00 50.00 50.00 50.00 50.00 50.00 50.00 50.00 50.00 50.00 50.00 50.00 50.00 50.00 0.054978 0.000000 0.000000 0.054978 0.000000 0.000000 1780775126.961598 nohost 3.352783
FLASER 180 50.00 50.00 50.00 50.00 50.00 50.00 50.00 50.00 50.00 50.00 50.00 50.00 50.00 50.00 50.00 50.00 50.00 50.00 50.00 50.00 50.00 50.00 50.00 50.00 50.00 50.00 50.00 50.00 50.00 50.00 50.00 50.00 50.00 50.00 50.00 50.00 50.00 50.00 50.00 50.00 50.00 50.00 50.00 50.00 50.00 50.00 50.00 50.00 50.00 50.00 50.00 50.00 1.07 1.08 1.11 1.13 1.15 1.18 50.00 50.00 50.00 50.00 1.38 0.87 0.87 0.88 0.90 50.00 1.23 1.24 0.98 1.32 1.29 1.29 1.31 2.09 2.17 1.78 1.79 4.74 4.79 5.57 0.21 0.25 0.32 0.35 4.86 0.38 5.49 0.39 0.41 2.86 2.86 2.85 0.33 0.31 0.28 0.25 0.23 2.84 2.84 1.53 2.88 2.90 2.92 1.19 1.16 2.85 1.07 1.08 1.07 3.22 50.00 1.28 1.27 1.27 3.58 1.25 1.05 1.04 1.04 50.00 50.00 50.00 50.00 50.00 4.99 50.00 50.00 50.00 50.00 50.00 50.00 50.00 50.00 50.00 50.00 50.00 50.00 50.00 50.00 50.00 50.00 50.00 50.00 50.00 50.00 50.00 50.00 50.00 50.00 50.00 50.00 50.00 50.00 50.00 50.00 50.00 50.00 50.00 50.00 50.00 50.00 50.00 50.00 50.00 50.00 50.00 50.00 50.00 50.00 50.00 50.00 50.00 50.00 50.00 50.00 50.00 50.00 50.00 0.054978 0.000000 0.000000 0.054978 0.000000 0.000000 1780775126.961598 nohost 3.354576
FLASER 180 50.00 50.00 50.00 50.00 50.00 50.00 50.00 50.00 50.00 50.00 50.00 50.00 50.00 50.00 50.00 50.00 50.00 50.00 50.00 50.00 50.00 50.00 50.00 50.00 50.00 50.00 50.00 50.00 50.00 50.00 50.00 50.00 50.00 50.00 50.00 50.00 50.00 50.00 50.00 50.00 50.00 50.00 50.00 50.00 50.00 50.00 50.00 50.00 50.00 50.00 50.00 50.00 1.07 1.08 1.11 1.13 1.15 1.18 50.00 50.00 50.00 50.00 1.38 0.87 0.87 0.88 0.90 50.00 1.23 1.24 0.98 1.32 1.29 1.29 1.31 2.09 2.17 1.78 1.79 4.74 4.79 5.57 0.21 0.25 0.32 0.35 4.86 0.38 5.49 0.39 0.41 2.86 2.86 2.85 0.33 0.31 0.28 0.25 0.23 2.84 2.84 1.53 2.88 2.90 2.92 1.19 1.16 2.85 1.07 1.08 1.07 3.22 50.00 1.28 1.27 1.27 3.58 1.25 1.05 1.04 1.04 50.00 50.00 50.00 50.00 50.00 4.99 50.00 50.00 50.00 50.00 50.00 50.00 50.00 50.00 50.00 50.00 50.00 50.00 50.00 50.00 50.00 50.00 50.00 50.00 50.00 50.00 50.00 50.00 50.00 50.00 50.00 50.00 50.00 50.00 50.00 50.00 50.00 50.00 50.00 50.00 50.00 50.00 50.00 50.00 50.00 50.00 50.00 50.00 50.00 50.00 50.00 50.00 50.00 50.00 50.00 50.00 50.00 50.00 50.00 0.054978 0.000000 0.000000 0.054978 0.000000 0.000000 1780775126.961598 nohost 3.361490
FLASER 180 50.00 50.00 50.00 50.00 50.00 50.00 50.00 50.00 50.00 50.00 50.00 50.00 50.00 50.00 50.00 50.00 50.00 50.00 50.00 50.00 50.00 50.00 50.00 50.00 50.00 50.00 50.00 50.00 50.00 50.00 50.00 50.00 50.00 50.00 50.00 50.00 50.00 50.00 50.00 50.00 50.00 50.00 50.00 50.00 50.00 50.00 50.00 50.00 50.00 50.00 50.00 50.00 50.00 1.09 1.11 1.13 1.16 1.18 50.00 50.00 50.00 50.00 0.86 0.85 0.86 0.88 0.94 1.20 1.20 1.22 0.98 1.31 1.29 1.29 1.32 2.11 1.83 1.78 1.78 4.75 4.85 50.00 5.49 0.24 0.32 0.35 50.00 50.00 5.49 2.86 0.41 2.85 2.85 0.37 0.32 0.31 0.28 0.26 0.23 2.82 2.83 2.85 2.86 2.91 2.93 3.20 2.98 2.83 1.28 2.87 1.26 1.22 1.29 1.27 1.26 1.26 1.26 1.25 1.06 1.04 1.03 50.00 50.00 50.00 50.00 50.00 5.00 50.00 50.00 50.00 50.00 50.00 50.00 50.00 50.00 50.00 50.00 50.00 50.00 50.00 50.00 50.00 50.00 50.00 50.00 50.00 50.00 50.00 50.00 50.00 50.00 50.00 50.00 50.00 50.00 50.00 50.00 50.00 50.00 50.00 50.00 50.00 50.00 50.00 50.00 50.00 50.00 50.00 50.00 50.00 50.00 50.00 50.00 50.00 50.00 50.00 50.00 50.00 50.00 50.00 0.054978 0.000000 0.000000 0.054978 0.000000 0.000000 1780775127.057816 nohost 3.368432
FLASER 180 50.00 50.00 50.00 50.00 50.00 50.00 50.00 50.00 50.00 50.00 50.00 50.00 50.00 50.00 50.00 50.00 50.00 50.00 50.00 50.00 50.00 50.00 50.00 50.00 50.00 50.00 50.00 50.00 50.00 50.00 50.00 50.00 50.00 50.00 50.00 50.00 50.00 50.00 50.00 50.00 50.00 50.00 50.00 50.00 50.00 50.00 50.00 50.00 50.00 50.00 50.00 50.00 50.00 1.09 1.11 1.13 1.16 1.18 50.00 50.00 50.00 50.00 0.86 0.85 0.86 0.88 0.94 1.20 1.20 1.22 0.98 1.31 1.29 1.29 1.32 2.11 1.83 1.78 1.78 4.75 4.85 50.00 5.49 0.24 0.32 0.35 50.00 50.00 5.49 2.86 0.41 2.85 2.85 0.37 0.32 0.31 0.28 0.26 0.23 2.82 2.83 2.85 2.86 2.91 2.93 3.20 2.98 2.83 1.28 2.87 1.26 1.22 1.29 1.27 1.26 1.26 1.26 1.25 1.06 1.04 1.03 50.00 50.00 50.00 50.00 50.00 5.00 50.00 50.00 50.00 50.00 50.00 50.00 50.00 50.00 50.00 50.00 50.00 50.00 50.00 50.00 50.00 50.00 50.00 50.00 50.00 50.00 50.00 50.00 50.00 50.00 50.00 50.00 50.00 50.00 50.00 50.00 50.00 50.00 50.00 50.00 50.00 50.00 50.00 50.00 50.00 50.00 50.00 50.00 50.00 50.00 50.00 50.00 50.00 50.00 50.00 50.00 50.00 50.00 50.00 0.054978 0.000000 0.000000 0.054978 0.000000 0.000000 1780775127.057816 nohost 3.373554
FLASER 180 50.00 50.00 50.00 50.00 50.00 50.00 50.00 50.00 50.00 50.00 50.00 50.00 50.00 50.00 50.00 50.00 50.00 50.00 50.00 50.00 50.00 50.00 50.00 50.00 50.00 50.00 50.00 50.00 50.00 50.00 50.00 50.00 50.00 50.00 50.00 50.00 50.00 50.00 50.00 50.00 50.00 50.00 50.00 50.00 50.00 50.00 50.00 50.00 50.00 50.00 50.00 50.00 50.00 1.09 1.11 1.13 1.16 1.18 50.00 50.00 50.00 50.00 0.86 0.85 0.86 0.88 0.94 1.20 1.20 1.22 0.98 1.31 1.29 1.29 1.32 2.11 1.83 1.78 1.78 4.75 4.85 50.00 5.49 0.24 0.32 0.35 50.00 50.00 5.49 2.86 0.41 2.85 2.85 0.37 0.32 0.31 0.28 0.26 0.23 2.82 2.83 2.85 2.86 2.91 2.93 3.20 2.98 2.83 1.28 2.87 1.26 1.22 1.29 1.27 1.26 1.26 1.26 1.25 1.06 1.04 1.03 50.00 50.00 50.00 50.00 50.00 5.00 50.00 50.00 50.00 50.00 50.00 50.00 50.00 50.00 50.00 50.00 50.00 50.00 50.00 50.00 50.00 50.00 50.00 50.00 50.00 50.00 50.00 50.00 50.00 50.00 50.00 50.00 50.00 50.00 50.00 50.00 50.00 50.00 50.00 50.00 50.00 50.00 50.00 50.00 50.00 50.00 50.00 50.00 50.00 50.00 50.00 50.00 50.00 50.00 50.00 50.00 50.00 50.00 50.00 0.054978 0.000000 0.000000 0.054978 0.000000 0.000000 1780775127.057816 nohost 3.377742
FLASER 180 50.00 50.00 50.00 50.00 50.00 50.00 50.00 50.00 50.00 50.00 50.00 50.00 50.00 50.00 50.00 50.00 50.00 50.00 50.00 50.00 50.00 50.00 50.00 50.00 50.00 50.00 50.00 50.00 50.00 50.00 50.00 50.00 50.00 50.00 50.00 50.00 50.00 50.00 50.00 50.00 50.00 50.00 50.00 50.00 50.00 50.00 50.00 50.00 50.00 50.00 50.00 50.00 50.00 1.09 1.11 1.13 1.16 1.18 50.00 50.00 50.00 50.00 0.86 0.85 0.86 0.88 0.94 1.20 1.20 1.22 0.98 1.31 1.29 1.29 1.32 2.11 1.83 1.78 1.78 4.75 4.85 50.00 5.49 0.24 0.32 0.35 50.00 50.00 5.49 2.86 0.41 2.85 2.85 0.37 0.32 0.31 0.28 0.26 0.23 2.82 2.83 2.85 2.86 2.91 2.93 3.20 2.98 2.83 1.28 2.87 1.26 1.22 1.29 1.27 1.26 1.26 1.26 1.25 1.06 1.04 1.03 50.00 50.00 50.00 50.00 50.00 5.00 50.00 50.00 50.00 50.00 50.00 50.00 50.00 50.00 50.00 50.00 50.00 50.00 50.00 50.00 50.00 50.00 50.00 50.00 50.00 50.00 50.00 50.00 50.00 50.00 50.00 50.00 50.00 50.00 50.00 50.00 50.00 50.00 50.00 50.00 50.00 50.00 50.00 50.00 50.00 50.00 50.00 50.00 50.00 50.00 50.00 50.00 50.00 50.00 50.00 50.00 50.00 50.00 50.00 0.054978 0.000000 0.000000 0.054978 0.000000 0.000000 1780775127.057816 nohost 3.382153
FLASER 180 50.00 50.00 50.00 50.00 50.00 50.00 50.00 50.00 50.00 50.00 50.00 50.00 50.00 50.00 50.00 50.00 50.00 50.00 50.00 50.00 50.00 50.00 50.00 50.00 50.00 50.00 50.00 50.00 50.00 50.00 50.00 50.00 50.00 50.00 50.00 50.00 50.00 50.00 50.00 50.00 50.00 50.00 50.00 50.00 50.00 50.00 50.00 50.00 50.00 50.00 50.00 50.00 1.08 1.09 1.11 1.14 1.16 50.00 50.00 50.00 50.00 50.00 1.39 0.85 0.86 0.89 50.00 1.21 1.22 1.26 0.99 1.31 1.29 1.29 1.33 2.10 1.82 1.78 1.79 2.15 4.86 5.18 5.46 0.24 0.32 0.34 4.89 0.38 2.86 2.85 0.41 2.84 2.84 0.37 0.34 0.31 0.28 0.26 0.24 2.83 2.83 2.85 2.87 2.90 2.93 2.94 1.36 1.31 2.82 2.86 1.24 1.22 50.00 1.26 1.27 1.26 1.25 1.24 1.06 1.05 1.04 50.00 50.00 50.00 50.00 50.00 5.00 50.00 50.00 50.00 50.00 50.00 50.00 50.00 50.00 50.00 50.00 50.00 50.00 50.00 50.00 50.00 50.00 50.00 50.00 50.00 50.00 50.00 50.00 50.00 50.00 50.00 50.00 50.00 50.00 50.00 50.00 50.00 50.00 50.00 50.00 50.00 50.00 50.00 50.00 50.00 50.00 50.00 50.00 50.00 50.00 50.00 50.00 50.00 50.00 50.00 50.00 50.00 50.00 50.00 0.054978 0.000000 0.000000 0.054978 0.000000 0.000000 1780775127.366766 nohost 3.385069
FLASER 180 50.00 50.00 50.00 50.00 50.00 50.00 50.00 50.00 50.00 50.00 50.00 50.00 50.00 50.00 50.00 50.00 50.00 50.00 50.00 50.00 50.00 50.00 50.00 50.00 50.00 50.00 50.00 50.00 50.00 50.00 50.00 50.00 50.00 50.00 50.00 50.00 50.00 50.00 50.00 50.00 50.00 50.00 50.00 50.00 50.00 50.00 50.00 50.00 50.00 50.00 50.00 50.00 1.08 1.09 1.11 1.14 1.16 50.00 50.00 50.00 50.00 50.00 1.39 0.85 0.86 0.89 50.00 1.21 1.22 1.26 0.99 1.31 1.29 1.29 1.33 2.10 1.82 1.78 1.79 2.15 4.86 5.18 5.46 0.24 0.32 0.34 4.89 0.38 2.86 2.85 0.41 2.84 2.84 0.37 0.34 0.31 0.28 0.26 0.24 2.83 2.83 2.85 2.87 2.90 2.93 2.94 1.36 1.31 2.82 2.86 1.24 1.22 50.00 1.26 1.27 1.26 1.25 1.24 1.06 1.05 1.04 50.00 50.00 50.00 50.00 50.00 5.00 50.00 50.00 50.00 50.00 50.00 50.00 50.00 50.00 50.00 50.00 50.00 50.00 50.00 50.00 50.00 50.00 50.00 50.00 50.00 50.00 50.00 50.00 50.00 50.00 50.00 50.00 50.00 50.00 50.00 50.00 50.00 50.00 50.00 50.00 50.00 50.00 50.00 50.00 50.00 50.00 50.00 50.00 50.00 50.00 50.00 50.00 50.00 50.00 50.00 50.00 50.00 50.00 50.00 0.054978 0.000000 0.000000 0.054978 0.000000 0.000000 1780775127.366766 nohost 3.387081
FLASER 180 50.00 50.00 50.00 50.00 50.00 50.00 50.00 50.00 50.00 50.00 50.00 50.00 50.00 50.00 50.00 50.00 50.00 50.00 50.00 50.00 50.00 50.00 50.00 50.00 50.00 50.00 50.00 50.00 50.00 50.00 50.00 50.00 50.00 50.00 50.00 50.00 50.00 50.00 50.00 50.00 50.00 50.00 50.00 50.00 50.00 50.00 50.00 50.00 50.00 50.00 50.00 50.00 1.08 1.09 1.11 1.14 1.16 50.00 50.00 50.00 50.00 50.00 1.39 0.85 0.86 0.89 50.00 1.21 1.22 1.26 0.99 1.31 1.29 1.29 1.33 2.10 1.82 1.78 1.79 2.15 4.86 5.18 5.46 0.24 0.32 0.34 4.89 0.38 2.86 2.85 0.41 2.84 2.84 0.37 0.34 0.31 0.28 0.26 0.24 2.83 2.83 2.85 2.87 2.90 2.93 2.94 1.36 1.31 2.82 2.86 1.24 1.22 50.00 1.26 1.27 1.26 1.25 1.24 1.06 1.05 1.04 50.00 50.00 50.00 50.00 50.00 5.00 50.00 50.00 50.00 50.00 50.00 50.00 50.00 50.00 50.00 50.00 50.00 50.00 50.00 50.00 50.00 50.00 50.00 50.00 50.00 50.00 50.00 50.00 50.00 50.00 50.00 50.00 50.00 50.00 50.00 50.00 50.00 50.00 50.00 50.00 50.00 50.00 50.00 50.00 50.00 50.00 50.00 50.00 50.00 50.00 50.00 50.00 50.00 50.00 50.00 50.00 50.00 50.00 50.00 0.054978 0.000000 0.000000 0.054978 0.000000 0.000000 1780775127.366766 nohost 3.389117
FLASER 180 50.00 50.00 50.00 50.00 50.00 50.00 50.00 50.00 50.00 50.00 50.00 50.00 50.00 50.00 50.00 50.00 50.00 50.00 50.00 50.00 50.00 50.00 50.00 50.00 50.00 50.00 50.00 50.00 50.00 50.00 50.00 50.00 50.00 50.00 50.00 50.00 50.00 50.00 50.00 50.00 50.00 50.00 50.00 50.00 50.00 50.00 50.00 50.00 50.00 50.00 50.00 50.00 1.08 1.09 1.11 1.14 1.16 50.00 50.00 50.00 50.00 50.00 1.39 0.85 0.86 0.89 50.00 1.21 1.22 1.26 0.99 1.31 1.29 1.29 1.33 2.10 1.82 1.78 1.79 2.15 4.86 5.18 5.46 0.24 0.32 0.34 4.89 0.38 2.86 2.85 0.41 2.84 2.84 0.37 0.34 0.31 0.28 0.26 0.24 2.83 2.83 2.85 2.87 2.90 2.93 2.94 1.36 1.31 2.82 2.86 1.24 1.22 50.00 1.26 1.27 1.26 1.25 1.24 1.06 1.05 1.04 50.00 50.00 50.00 50.00 50.00 5.00 50.00 50.00 50.00 50.00 50.00 50.00 50.00 50.00 50.00 50.00 50.00 50.00 50.00 50.00 50.00 50.00 50.00 50.00 50.00 50.00 50.00 50.00 50.00 50.00 50.00 50.00 50.00 50.00 50.00 50.00 50.00 50.00 50.00 50.00 50.00 50.00 50.00 50.00 50.00 50.00 50.00 50.00 50.00 50.00 50.00 50.00 50.00 50.00 50.00 50.00 50.00 50.00 50.00 0.054978 0.000000 0.000000 0.054978 0.000000 0.000000 1780775127.366766 nohost 3.392712
ODOM 0.054978 0.000000 0.000000 0.000000 0.000000 0.000000 1780775127.420657 nohost 3.394079
ODOM 0.054978 0.000000 0.000000 0.000000 0.000000 0.000000 1780775127.441221 nohost 3.408330
ODOM 0.054978 0.000000 0.000000 0.000000 0.000000 0.000000 1780775127.486233 nohost 3.451300
FLASER 180 50.00 50.00 50.00 50.00 50.00 50.00 50.00 50.00 50.00 50.00 50.00 50.00 50.00 50.00 50.00 50.00 50.00 50.00 50.00 50.00 50.00 50.00 50.00 50.00 50.00 50.00 50.00 50.00 50.00 50.00 50.00 50.00 50.00 50.00 50.00 50.00 50.00 50.00 50.00 50.00 50.00 50.00 50.00 50.00 50.00 50.00 50.00 50.00 50.00 50.00 50.00 50.00 1.08 1.09 1.11 1.14 1.16 50.00 50.00 50.00 50.00 1.35 0.85 0.85 0.86 0.89 1.21 1.21 1.23 1.26 0.99 1.31 1.29 1.28 1.32 2.31 1.82 1.78 1.78 2.15 4.87 50.00 5.46 0.24 0.32 0.35 4.89 5.21 2.85 2.85 2.84 2.84 2.84 0.37 0.34 0.31 0.28 0.26 0.24 2.83 2.84 2.86 2.87 2.91 2.92 50.00 1.27 1.24 2.81 3.09 3.14 3.20 50.00 1.27 1.27 1.27 1.25 1.25 1.06 1.04 1.03 50.00 1.04 50.00 50.00 50.00 4.99 50.00 50.00 50.00 50.00 50.00 50.00 50.00 50.00 50.00 50.00 50.00 50.00 50.00 50.00 50.00 50.00 50.00 50.00 50.00 50.00 50.00 50.00 50.00 50.00 50.00 50.00 50.00 50.00 50.00 50.00 50.00 50.00 50.00 50.00 50.00 50.00 50.00 50.00 50.00 50.00 50.00 50.00 50.00 50.00 50.00 50.00 50.00 50.00 50.00 50.00 50.00 50.00 50.00 0.054978 0.000000 0.000000 0.054978 0.000000 0.000000 1780775127.374562 nohost 3.455205
FLASER 180 50.00 50.00 50.00 50.00 50.00 50.00 50.00 50.00 50.00 50.00 50.00 50.00 50.00 50.00 50.00 50.00 50.00 50.00 50.00 50.00 50.00 50.00 50.00 50.00 50.00 50.00 50.00 50.00 50.00 50.00 50.00 50.00 50.00 50.00 50.00 50.00 50.00 50.00 50.00 50.00 50.00 50.00 50.00 50.00 50.00 50.00 50.00 50.00 50.00 50.00 50.00 50.00 1.08 1.09 1.11 1.14 1.16 50.00 50.00 50.00 50.00 1.35 0.85 0.85 0.86 0.89 1.21 1.21 1.23 1.26 0.99 1.31 1.29 1.28 1.32 2.31 1.82 1.78 1.78 2.15 4.87 50.00 5.46 0.24 0.32 0.35 4.89 5.21 2.85 2.85 2.84 2.84 2.84 0.37 0.34 0.31 0.28 0.26 0.24 2.83 2.84 2.86 2.87 2.91 2.92 50.00 1.27 1.24 2.81 3.09 3.14 3.20 50.00 1.27 1.27 1.27 1.25 1.25 1.06 1.04 1.03 50.00 1.04 50.00 50.00 50.00 4.99 50.00 50.00 50.00 50.00 50.00 50.00 50.00 50.00 50.00 50.00 50.00 50.00 50.00 50.00 50.00 50.00 50.00 50.00 50.00 50.00 50.00 50.00 50.00 50.00 50.00 50.00 50.00 50.00 50.00 50.00 50.00 50.00 50.00 50.00 50.00 50.00 50.00 50.00 50.00 50.00 50.00 50.00 50.00 50.00 50.00 50.00 50.00 50.00 50.00 50.00 50.00 50.00 50.00 0.054978 0.000000 0.000000 0.054978 0.000000 0.000000 1780775127.374562 nohost 3.456158
FLASER 180 50.00 50.00 50.00 50.00 50.00 50.00 50.00 50.00 50.00 50.00 50.00 50.00 50.00 50.00 50.00 50.00 50.00 50.00 50.00 50.00 50.00 50.00 50.00 50.00 50.00 50.00 50.00 50.00 50.00 50.00 50.00 50.00 50.00 50.00 50.00 50.00 50.00 50.00 50.00 50.00 50.00 50.00 50.00 50.00 50.00 50.00 50.00 50.00 50.00 50.00 50.00 50.00 1.08 1.09 1.11 1.14 1.16 50.00 50.00 50.00 50.00 1.35 0.85 0.85 0.86 0.89 1.21 1.21 1.23 1.26 0.99 1.31 1.29 1.28 1.32 2.31 1.82 1.78 1.78 2.15 4.87 50.00 5.46 0.24 0.32 0.35 4.89 5.21 2.85 2.85 2.84 2.84 2.84 0.37 0.34 0.31 0.28 0.26 0.24 2.83 2.84 2.86 2.87 2.91 2.92 50.00 1.27 1.24 2.81 3.09 3.14 3.20 50.00 1.27 1.27 1.27 1.25 1.25 1.06 1.04 1.03 50.00 1.04 50.00 50.00 50.00 4.99 50.00 50.00 50.00 50.00 50.00 50.00 50.00 50.00 50.00 50.00 50.00 50.00 50.00 50.00 50.00 50.00 50.00 50.00 50.00 50.00 50.00 50.00 50.00 50.00 50.00 50.00 50.00 50.00 50.00 50.00 50.00 50.00 50.00 50.00 50.00 50.00 50.00 50.00 50.00 50.00 50.00 50.00 50.00 50.00 50.00 50.00 50.00 50.00 50.00 50.00 50.00 50.00 50.00 0.054978 0.000000 0.000000 0.054978 0.000000 0.000000 1780775127.374562 nohost 3.456831
FLASER 180 50.00 50.00 50.00 50.00 50.00 50.00 50.00 50.00 50.00 50.00 50.00 50.00 50.00 50.00 50.00 50.00 50.00 50.00 50.00 50.00 50.00 50.00 50.00 50.00 50.00 50.00 50.00 50.00 50.00 50.00 50.00 50.00 50.00 50.00 50.00 50.00 50.00 50.00 50.00 50.00 50.00 50.00 50.00 50.00 50.00 50.00 50.00 50.00 50.00 50.00 50.00 50.00 1.08 1.09 1.11 1.14 1.16 50.00 50.00 50.00 50.00 1.35 0.85 0.85 0.86 0.89 1.21 1.21 1.23 1.26 0.99 1.31 1.29 1.28 1.32 2.31 1.82 1.78 1.78 2.15 4.87 50.00 5.46 0.24 0.32 0.35 4.89 5.21 2.85 2.85 2.84 2.84 2.84 0.37 0.34 0.31 0.28 0.26 0.24 2.83 2.84 2.86 2.87 2.91 2.92 50.00 1.27 1.24 2.81 3.09 3.14 3.20 50.00 1.27 1.27 1.27 1.25 1.25 1.06 1.04 1.03 50.00 1.04 50.00 50.00 50.00 4.99 50.00 50.00 50.00 50.00 50.00 50.00 50.00 50.00 50.00 50.00 50.00 50.00 50.00 50.00 50.00 50.00 50.00 50.00 50.00 50.00 50.00 50.00 50.00 50.00 50.00 50.00 50.00 50.00 50.00 50.00 50.00 50.00 50.00 50.00 50.00 50.00 50.00 50.00 50.00 50.00 50.00 50.00 50.00 50.00 50.00 50.00 50.00 50.00 50.00 50.00 50.00 50.00 50.00 0.054978 0.000000 0.000000 0.054978 0.000000 0.000000 1780775127.374562 nohost 3.457463
ODOM 0.054978 0.000000 0.000000 0.000000 0.000000 0.000000 1780775127.538188 nohost 3.504106
ODOM 0.054978 0.000000 0.000000 0.000000 0.000000 0.000000 1780775127.586918 nohost 3.552473
FLASER 180 50.00 50.00 50.00 50.00 50.00 50.00 50.00 50.00 50.00 50.00 50.00 50.00 50.00 50.00 50.00 50.00 50.00 50.00 50.00 50.00 50.00 50.00 50.00 50.00 50.00 50.00 50.00 50.00 50.00 50.00 50.00 50.00 50.00 50.00 50.00 50.00 50.00 50.00 50.00 50.00 50.00 50.00 50.00 50.00 50.00 50.00 50.00 50.00 50.00 50.00 50.00 50.00 1.08 1.09 1.11 1.14 1.16 50.00 50.00 50.00 50.00 50.00 1.39 0.85 0.85 0.89 50.00 1.21 1.22 1.25 0.98 1.31 1.29 1.29 1.33 2.32 1.83 1.78 1.79 2.13 5.56 5.13 5.45 0.24 0.32 0.35 4.89 0.38 0.39 2.85 2.84 2.84 2.84 2.85 0.35 0.31 0.28 0.26 0.24 2.83 2.84 2.85 2.87 2.89 2.93 2.94 1.23 1.18 2.81 1.16 1.12 3.19 50.00 1.27 1.27 1.02 1.26 1.25 1.04 1.04 1.03 50.00 50.00 50.00 50.00 50.00 5.00 50.00 50.00 50.00 50.00 50.00 50.00 50.00 50.00 50.00 50.00 50.00 50.00 50.00 50.00 50.00 50.00 50.00 50.00 50.00 50.00 50.00 50.00 50.00 50.00 50.00 50.00 50.00 50.00 50.00 50.00 50.00 50.00 50.00 50.00 50.00 50.00 50.00 50.00 50.00 50.00 50.00 50.00 50.00 50.00 50.00 50.00 50.00 50.00 50.00 50.00 50.00 50.00 50.00 0.054978 0.000000 0.000000 0.054978 0.000000 0.000000 1780775127.447103 nohost 3.553427
FLASER 180 50.00 50.00 50.00 50.00 50.00 50.00 50.00 50.00 50.00 50.00 50.00 50.00 50.00 50.00 50.00 50.00 50.00 50.00 50.00 50.00 50.00 50.00 50.00 50.00 50.00 50.00 50.00 50.00 50.00 50.00 50.00 50.00 50.00 50.00 50.00 50.00 50.00 50.00 50.00 50.00 50.00 50.00 50.00 50.00 50.00 50.00 50.00 50.00 50.00 50.00 50.00 50.00 1.08 1.09 1.11 1.14 1.16 50.00 50.00 50.00 50.00 50.00 1.39 0.85 0.85 0.89 50.00 1.21 1.22 1.25 0.98 1.31 1.29 1.29 1.33 2.32 1.83 1.78 1.79 2.13 5.56 5.13 5.45 0.24 0.32 0.35 4.89 0.38 0.39 2.85 2.84 2.84 2.84 2.85 0.35 0.31 0.28 0.26 0.24 2.83 2.84 2.85 2.87 2.89 2.93 2.94 1.23 1.18 2.81 1.16 1.12 3.19 50.00 1.27 1.27 1.02 1.26 1.25 1.04 1.04 1.03 50.00 50.00 50.00 50.00 50.00 5.00 50.00 50.00 50.00 50.00 50.00 50.00 50.00 50.00 50.00 50.00 50.00 50.00 50.00 50.00 50.00 50.00 50.00 50.00 50.00 50.00 50.00 50.00 50.00 50.00 50.00 50.00 50.00 50.00 50.00 50.00 50.00 50.00 50.00 50.00 50.00 50.00 50.00 50.00 50.00 50.00 50.00 50.00 50.00 50.00 50.00 50.00 50.00 50.00 50.00 50.00 50.00 50.00 50.00 0.054978 0.000000 0.000000 0.054978 0.000000 0.000000 1780775127.447103 nohost 3.554439
FLASER 180 50.00 50.00 50.00 50.00 50.00 50.00 50.00 50.00 50.00 50.00 50.00 50.00 50.00 50.00 50.00 50.00 50.00 50.00 50.00 50.00 50.00 50.00 50.00 50.00 50.00 50.00 50.00 50.00 50.00 50.00 50.00 50.00 50.00 50.00 50.00 50.00 50.00 50.00 50.00 50.00 50.00 50.00 50.00 50.00 50.00 50.00 50.00 50.00 50.00 50.00 50.00 50.00 1.08 1.09 1.11 1.14 1.16 50.00 50.00 50.00 50.00 50.00 1.39 0.85 0.85 0.89 50.00 1.21 1.22 1.25 0.98 1.31 1.29 1.29 1.33 2.32 1.83 1.78 1.79 2.13 5.56 5.13 5.45 0.24 0.32 0.35 4.89 0.38 0.39 2.85 2.84 2.84 2.84 2.85 0.35 0.31 0.28 0.26 0.24 2.83 2.84 2.85 2.87 2.89 2.93 2.94 1.23 1.18 2.81 1.16 1.12 3.19 50.00 1.27 1.27 1.02 1.26 1.25 1.04 1.04 1.03 50.00 50.00 50.00 50.00 50.00 5.00 50.00 50.00 50.00 50.00 50.00 50.00 50.00 50.00 50.00 50.00 50.00 50.00 50.00 50.00 50.00 50.00 50.00 50.00 50.00 50.00 50.00 50.00 50.00 50.00 50.00 50.00 50.00 50.00 50.00 50.00 50.00 50.00 50.00 50.00 50.00 50.00 50.00 50.00 50.00 50.00 50.00 50.00 50.00 50.00 50.00 50.00 50.00 50.00 50.00 50.00 50.00 50.00 50.00 0.054978 0.000000 0.000000 0.054978 0.000000 0.000000 1780775127.447103 nohost 3.556460
FLASER 180 50.00 50.00 50.00 50.00 50.00 50.00 50.00 50.00 50.00 50.00 50.00 50.00 50.00 50.00 50.00 50.00 50.00 50.00 50.00 50.00 50.00 50.00 50.00 50.00 50.00 50.00 50.00 50.00 50.00 50.00 50.00 50.00 50.00 50.00 50.00 50.00 50.00 50.00 50.00 50.00 50.00 50.00 50.00 50.00 50.00 50.00 50.00 50.00 50.00 50.00 50.00 50.00 1.08 1.09 1.11 1.14 1.16 50.00 50.00 50.00 50.00 50.00 1.39 0.85 0.85 0.89 50.00 1.21 1.22 1.25 0.98 1.31 1.29 1.29 1.33 2.32 1.83 1.78 1.79 2.13 5.56 5.13 5.45 0.24 0.32 0.35 4.89 0.38 0.39 2.85 2.84 2.84 2.84 2.85 0.35 0.31 0.28 0.26 0.24 2.83 2.84 2.85 2.87 2.89 2.93 2.94 1.23 1.18 2.81 1.16 1.12 3.19 50.00 1.27 1.27 1.02 1.26 1.25 1.04 1.04 1.03 50.00 50.00 50.00 50.00 50.00 5.00 50.00 50.00 50.00 50.00 50.00 50.00 50.00 50.00 50.00 50.00 50.00 50.00 50.00 50.00 50.00 50.00 50.00 50.00 50.00 50.00 50.00 50.00 50.00 50.00 50.00 50.00 50.00 50.00 50.00 50.00 50.00 50.00 50.00 50.00 50.00 50.00 50.00 50.00 50.00 50.00 50.00 50.00 50.00 50.00 50.00 50.00 50.00 50.00 50.00 50.00 50.00 50.00 50.00 0.054978 0.000000 0.000000 0.054978 0.000000 0.000000 1780775127.447103 nohost 3.557227
ODOM 0.054978 0.000000 0.000000 0.000000 0.000000 0.000000 1780775127.635368 nohost 3.600992
ODOM 0.054978 0.000000 0.000000 0.000000 0.000000 0.000000 1780775127.685344 nohost 3.650790
FLASER 180 50.00 50.00 50.00 50.00 50.00 50.00 50.00 50.00 50.00 50.00 50.00 50.00 50.00 50.00 50.00 50.00 50.00 50.00 50.00 50.00 50.00 50.00 50.00 50.00 50.00 50.00 50.00 50.00 50.00 50.00 50.00 50.00 50.00 50.00 50.00 50.00 50.00 50.00 50.00 50.00 50.00 50.00 50.00 50.00 50.00 50.00 50.00 50.00 50.00 50.00 50.00 50.00 1.08 1.09 1.11 1.14 1.16 50.00 50.00 50.00 50.00 1.35 0.85 0.85 0.86 0.90 1.21 1.20 1.21 1.25 0.99 1.31 1.28 1.28 1.32 2.10 1.81 1.78 1.78 4.79 5.55 50.00 5.47 0.24 0.32 0.35 50.00 0.39 0.40 2.85 2.84 2.84 2.84 2.85 0.35 0.31 0.28 0.26 0.24 2.84 2.84 2.86 2.88 2.90 2.93 2.95 1.23 1.18 2.81 1.15 3.12 3.19 50.00 1.27 1.27 1.00 1.26 1.25 1.05 1.04 1.04 50.00 50.00 50.00 50.00 50.00 5.00 50.00 50.00 50.00 50.00 50.00 50.00 50.00 50.00 50.00 50.00 50.00 50.00 50.00 50.00 50.00 50.00 50.00 50.00 50.00 50.00 50.00 50.00 50.00 50.00 50.00 50.00 50.00 50.00 50.00 50.00 50.00 50.00 50.00 50.00 50.00 50.00 50.00 50.00 50.00 50.00 50.00 50.00 50.00 50.00 50.00 50.00 50.00 50.00 50.00 50.00 50.00 50.00 50.00 0.054978 0.000000 0.000000 0.054978 0.000000 0.000000 1780775127.542728 nohost 3.651218
FLASER 180 50.00 50.00 50.00 50.00 50.00 50.00 50.00 50.00 50.00 50.00 50.00 50.00 50.00 50.00 50.00 50.00 50.00 50.00 50.00 50.00 50.00 50.00 50.00 50.00 50.00 50.00 50.00 50.00 50.00 50.00 50.00 50.00 50.00 50.00 50.00 50.00 50.00 50.00 50.00 50.00 50.00 50.00 50.00 50.00 50.00 50.00 50.00 50.00 50.00 50.00 50.00 50.00 1.08 1.09 1.11 1.14 1.16 50.00 50.00 50.00 50.00 1.35 0.85 0.85 0.86 0.90 1.21 1.20 1.21 1.25 0.99 1.31 1.28 1.28 1.32 2.10 1.81 1.78 1.78 4.79 5.55 50.00 5.47 0.24 0.32 0.35 50.00 0.39 0.40 2.85 2.84 2.84 2.84 2.85 0.35 0.31 0.28 0.26 0.24 2.84 2.84 2.86 2.88 2.90 2.93 2.95 1.23 1.18 2.81 1.15 3.12 3.19 50.00 1.27 1.27 1.00 1.26 1.25 1.05 1.04 1.04 50.00 50.00 50.00 50.00 50.00 5.00 50.00 50.00 50.00 50.00 50.00 50.00 50.00 50.00 50.00 50.00 50.00 50.00 50.00 50.00 50.00 50.00 50.00 50.00 50.00 50.00 50.00 50.00 50.00 50.00 50.00 50.00 50.00 50.00 50.00 50.00 50.00 50.00 50.00 50.00 50.00 50.00 50.00 50.00 50.00 50.00 50.00 50.00 50.00 50.00 50.00 50.00 50.00 50.00 50.00 50.00 50.00 50.00 50.00 0.054978 0.000000 0.000000 0.054978 0.000000 0.000000 1780775127.542728 nohost 3.651810
FLASER 180 50.00 50.00 50.00 50.00 50.00 50.00 50.00 50.00 50.00 50.00 50.00 50.00 50.00 50.00 50.00 50.00 50.00 50.00 50.00 50.00 50.00 50.00 50.00 50.00 50.00 50.00 50.00 50.00 50.00 50.00 50.00 50.00 50.00 50.00 50.00 50.00 50.00 50.00 50.00 50.00 50.00 50.00 50.00 50.00 50.00 50.00 50.00 50.00 50.00 50.00 50.00 50.00 1.08 1.09 1.11 1.14 1.16 50.00 50.00 50.00 50.00 1.35 0.85 0.85 0.86 0.90 1.21 1.20 1.21 1.25 0.99 1.31 1.28 1.28 1.32 2.10 1.81 1.78 1.78 4.79 5.55 50.00 5.47 0.20 0.32 0.35 50.00 0.39 0.40 2.85 2.84 2.84 2.84 2.85 0.35 0.31 0.28 0.26 0.24 2.84 2.84 2.86 2.88 2.90 2.93 2.95 1.23 1.18 2.81 1.15 3.12 3.19 50.00 1.27 1.27 1.00 1.26 1.25 1.05 1.04 1.04 50.00 50.00 50.00 50.00 50.00 5.00 50.00 50.00 50.00 50.00 50.00 50.00 50.00 50.00 50.00 50.00 50.00 50.00 50.00 50.00 50.00 50.00 50.00 50.00 50.00 50.00 50.00 50.00 50.00 50.00 50.00 50.00 50.00 50.00 50.00 50.00 50.00 50.00 50.00 50.00 50.00 50.00 50.00 50.00 50.00 50.00 50.00 50.00 50.00 50.00 50.00 50.00 50.00 50.00 50.00 50.00 50.00 50.00 50.00 0.054978 0.000000 0.000000 0.054978 0.000000 0.000000 1780775127.542728 nohost 3.652279
FLASER 180 50.00 50.00 50.00 50.00 50.00 50.00 50.00 50.00 50.00 50.00 50.00 50.00 50.00 50.00 50.00 50.00 50.00 50.00 50.00 50.00 50.00 50.00 50.00 50.00 50.00 50.00 50.00 50.00 50.00 50.00 50.00 50.00 50.00 50.00 50.00 50.00 50.00 50.00 50.00 50.00 50.00 50.00 50.00 50.00 50.00 50.00 50.00 50.00 50.00 50.00 50.00 50.00 1.08 1.09 1.11 1.14 1.16 50.00 50.00 50.00 50.00 1.35 0.85 0.85 0.86 0.90 1.21 1.20 1.21 1.25 0.99 1.31 1.28 1.28 1.32 2.10 1.81 1.78 1.78 4.79 5.55 50.00 5.47 0.20 0.32 0.35 50.00 0.39 0.40 2.85 2.84 2.84 2.84 2.85 0.35 0.31 0.28 0.26 0.24 2.84 2.84 2.86 2.88 2.90 2.93 2.95 1.23 1.18 2.81 1.15 3.12 3.19 50.00 1.27 1.27 1.00 1.26 1.25 1.05 1.04 1.04 50.00 50.00 50.00 50.00 50.00 5.00 50.00 50.00 50.00 50.00 50.00 50.00 50.00 50.00 50.00 50.00 50.00 50.00 50.00 50.00 50.00 50.00 50.00 50.00 50.00 50.00 50.00 50.00 50.00 50.00 50.00 50.00 50.00 50.00 50.00 50.00 50.00 50.00 50.00 50.00 50.00 50.00 50.00 50.00 50.00 50.00 50.00 50.00 50.00 50.00 50.00 50.00 50.00 50.00 50.00 50.00 50.00 50.00 50.00 0.054978 0.000000 0.000000 0.054978 0.000000 0.000000 1780775127.542728 nohost 3.652816
ODOM 0.054978 0.000000 0.000000 0.000000 0.000000 0.000000 1780775127.737293 nohost 3.702780
FLASER 180 50.00 50.00 50.00 50.00 50.00 50.00 50.00 50.00 50.00 50.00 50.00 50.00 50.00 50.00 50.00 50.00 50.00 50.00 50.00 50.00 50.00 50.00 50.00 50.00 50.00 50.00 50.00 50.00 50.00 50.00 50.00 50.00 50.00 50.00 50.00 50.00 50.00 50.00 50.00 50.00 50.00 50.00 50.00 50.00 50.00 50.00 50.00 50.00 50.00 50.00 50.00 50.00 1.08 1.09 1.11 1.14 1.16 50.00 50.00 50.00 50.00 1.35 1.38 0.85 0.86 0.89 50.00 1.20 1.22 1.25 0.98 1.31 1.29 1.29 1.32 2.10 1.82 1.78 1.78 4.77 5.55 50.00 5.46 0.24 0.32 0.35 0.37 5.23 2.86 2.85 2.84 2.84 2.84 0.37 0.32 0.31 0.28 0.26 0.24 2.84 2.84 2.86 2.87 2.91 2.93 3.20 1.22 1.17 2.81 1.13 1.10 3.20 50.00 1.27 1.27 1.27 1.25 1.24 1.06 1.04 1.03 50.00 1.03 50.00 50.00 50.00 5.01 50.00 50.00 50.00 50.00 50.00 50.00 50.00 50.00 50.00 50.00 50.00 50.00 50.00 50.00 50.00 50.00 50.00 50.00 50.00 50.00 50.00 50.00 50.00 50.00 50.00 50.00 50.00 50.00 50.00 50.00 50.00 50.00 50.00 50.00 50.00 50.00 50.00 50.00 50.00 50.00 50.00 50.00 50.00 50.00 50.00 50.00 50.00 50.00 50.00 50.00 50.00 50.00 50.00 0.054978 0.000000 0.000000 0.054978 0.000000 0.000000 1780775127.640337 nohost 3.748832
FLASER 180 50.00 50.00 50.00 50.00 50.00 50.00 50.00 50.00 50.00 50.00 50.00 50.00 50.00 50.00 50.00 50.00 50.00 50.00 50.00 50.00 50.00 50.00 50.00 50.00 50.00 50.00 50.00 50.00 50.00 50.00 50.00 50.00 50.00 50.00 50.00 50.00 50.00 50.00 50.00 50.00 50.00 50.00 50.00 50.00 50.00 50.00 50.00 50.00 50.00 50.00 50.00 50.00 1.08 1.09 1.11 1.14 1.16 50.00 50.00 50.00 50.00 1.35 1.38 0.85 0.86 0.89 50.00 1.20 1.22 1.25 0.98 1.31 1.29 1.29 1.32 2.10 1.82 1.78 1.78 4.77 5.55 50.00 5.46 0.24 0.32 0.35 0.37 5.23 2.86 2.85 2.84 2.84 2.84 0.37 0.32 0.31 0.28 0.26 0.24 2.84 2.84 2.86 2.87 2.91 2.93 3.20 1.22 1.17 2.81 1.13 1.10 3.20 50.00 1.27 1.27 1.27 1.25 1.24 1.06 1.04 1.03 50.00 1.03 50.00 50.00 50.00 5.01 50.00 50.00 50.00 50.00 50.00 50.00 50.00 50.00 50.00 50.00 50.00 50.00 50.00 50.00 50.00 50.00 50.00 50.00 50.00 50.00 50.00 50.00 50.00 50.00 50.00 50.00 50.00 50.00 50.00 50.00 50.00 50.00 50.00 50.00 50.00 50.00 50.00 50.00 50.00 50.00 50.00 50.00 50.00 50.00 50.00 50.00 50.00 50.00 50.00 50.00 50.00 50.00 50.00 0.054978 0.000000 0.000000 0.054978 0.000000 0.000000 1780775127.640337 nohost 3.749692
FLASER 180 50.00 50.00 50.00 50.00 50.00 50.00 50.00 50.00 50.00 50.00 50.00 50.00 50.00 50.00 50.00 50.00 50.00 50.00 50.00 50.00 50.00 50.00 50.00 50.00 50.00 50.00 50.00 50.00 50.00 50.00 50.00 50.00 50.00 50.00 50.00 50.00 50.00 50.00 50.00 50.00 50.00 50.00 50.00 50.00 50.00 50.00 50.00 50.00 50.00 50.00 50.00 50.00 1.08 1.09 1.11 1.14 1.16 50.00 50.00 50.00 50.00 1.35 1.38 0.85 0.86 0.89 50.00 1.20 1.22 1.25 0.98 1.31 1.29 1.29 1.32 2.10 1.82 1.78 1.78 4.77 5.55 50.00 5.46 0.24 0.32 0.35 0.37 5.23 2.86 2.85 2.84 2.84 2.84 0.37 0.32 0.31 0.28 0.26 0.24 2.84 2.84 2.86 2.87 2.91 2.93 3.20 1.22 1.17 2.81 1.13 1.10 3.20 50.00 1.27 1.27 1.27 1.25 1.24 1.06 1.04 1.03 50.00 1.03 50.00 50.00 50.00 5.01 50.00 50.00 50.00 50.00 50.00 50.00 50.00 50.00 50.00 50.00 50.00 50.00 50.00 50.00 50.00 50.00 50.00 50.00 50.00 50.00 50.00 50.00 50.00 50.00 50.00 50.00 50.00 50.00 50.00 50.00 50.00 50.00 50.00 50.00 50.00 50.00 50.00 50.00 50.00 50.00 50.00 50.00 50.00 50.00 50.00 50.00 50.00 50.00 50.00 50.00 50.00 50.00 50.00 0.054978 0.000000 0.000000 0.054978 0.000000 0.000000 1780775127.640337 nohost 3.750352
FLASER 180 50.00 50.00 50.00 50.00 50.00 50.00 50.00 50.00 50.00 50.00 50.00 50.00 50.00 50.00 50.00 50.00 50.00 50.00 50.00 50.00 50.00 50.00 50.00 50.00 50.00 50.00 50.00 50.00 50.00 50.00 50.00 50.00 50.00 50.00 50.00 50.00 50.00 50.00 50.00 50.00 50.00 50.00 50.00 50.00 50.00 50.00 50.00 50.00 50.00 50.00 50.00 50.00 1.08 1.09 1.11 1.14 1.16 50.00 50.00 50.00 50.00 1.35 1.38 0.85 0.86 0.89 50.00 1.20 1.22 1.25 0.98 1.31 1.29 1.29 1.32 2.10 1.82 1.78 1.78 4.77 5.55 50.00 5.46 0.24 0.32 0.35 0.37 5.23 2.86 2.85 2.84 2.84 2.84 0.37 0.32 0.31 0.28 0.26 0.24 2.84 2.84 2.86 2.87 2.91 2.93 3.20 1.22 1.17 2.81 1.13 1.10 3.20 50.00 1.27 1.27 1.27 1.25 1.24 1.06 1.04 1.03 50.00 1.03 50.00 50.00 50.00 5.01 50.00 50.00 50.00 50.00 50.00 50.00 50.00 50.00 50.00 50.00 50.00 50.00 50.00 50.00 50.00 50.00 50.00 50.00 50.00 50.00 50.00 50.00 50.00 50.00 50.00 50.00 50.00 50.00 50.00 50.00 50.00 50.00 50.00 50.00 50.00 50.00 50.00 50.00 50.00 50.00 50.00 50.00 50.00 50.00 50.00 50.00 50.00 50.00 50.00 50.00 50.00 50.00 50.00 0.054978 0.000000 0.000000 0.054978 0.000000 0.000000 1780775127.640337 nohost 3.750808
ODOM 0.054978 0.000000 0.000000 0.000000 0.000000 0.000000 1780775127.789389 nohost 3.755297
ODOM 0.054978 0.000000 0.000000 0.000000 0.000000 0.000000 1780775127.835436 nohost 3.800838
FLASER 180 50.00 50.00 50.00 50.00 50.00 50.00 50.00 50.00 50.00 50.00 50.00 50.00 50.00 50.00 50.00 50.00 50.00 50.00 50.00 50.00 50.00 50.00 50.00 50.00 50.00 50.00 50.00 50.00 50.00 50.00 50.00 50.00 50.00 50.00 50.00 50.00 50.00 50.00 50.00 50.00 50.00 50.00 50.00 50.00 50.00 50.00 50.00 50.00 50.00 50.00 50.00 50.00 1.08 1.09 1.11 1.14 1.16 50.00 50.00 50.00 50.00 0.86 0.85 0.85 0.86 0.89 50.00 1.21 1.22 1.26 0.99 1.30 1.29 0.38 1.32 2.10 1.81 1.78 1.78 4.78 4.86 5.13 5.46 0.24 0.32 0.35 0.37 0.38 2.85 2.85 0.41 2.84 2.84 0.37 0.33 0.30 0.28 0.26 0.24 2.84 2.85 1.48 2.88 2.90 2.93 1.19 1.15 2.83 1.09 3.10 1.09 3.19 50.00 1.27 1.27 1.26 1.26 1.25 1.06 1.04 1.03 50.00 50.00 50.00 50.00 50.00 4.99 50.00 50.00 50.00 50.00 50.00 50.00 50.00 50.00 50.00 50.00 50.00 50.00 50.00 50.00 50.00 50.00 50.00 50.00 50.00 50.00 50.00 50.00 50.00 50.00 50.00 50.00 50.00 50.00 50.00 50.00 50.00 50.00 50.00 50.00 50.00 50.00 50.00 50.00 50.00 50.00 50.00 50.00 50.00 50.00 50.00 50.00 50.00 50.00 50.00 50.00 50.00 50.00 50.00 0.054978 0.000000 0.000000 0.054978 0.000000 0.000000 1780775127.738767 nohost 3.845109
FLASER 180 50.00 50.00 50.00 50.00 50.00 50.00 50.00 50.00 50.00 50.00 50.00 50.00 50.00 50.00 50.00 50.00 50.00 50.00 50.00 50.00 50.00 50.00 50.00 50.00 50.00 50.00 50.00 50.00 50.00 50.00 50.00 50.00 50.00 50.00 50.00 50.00 50.00 50.00 50.00 50.00 50.00 50.00 50.00 50.00 50.00 50.00 50.00 50.00 50.00 50.00 50.00 50.00 1.08 1.09 1.11 1.14 1.16 50.00 50.00 50.00 50.00 0.86 0.85 0.85 0.86 0.89 50.00 1.21 1.22 1.26 0.99 1.30 1.29 0.38 1.32 2.10 1.81 1.78 1.78 4.78 4.86 5.13 5.46 0.24 0.32 0.35 0.37 0.38 2.85 2.85 0.41 2.84 2.84 0.37 0.33 0.30 0.28 0.26 0.24 2.84 2.85 1.48 2.88 2.90 2.93 1.19 1.15 2.83 1.09 3.10 1.09 3.19 50.00 1.27 1.27 1.26 1.26 1.25 1.06 1.04 1.03 50.00 50.00 50.00 50.00 50.00 4.99 50.00 50.00 50.00 50.00 50.00 50.00 50.00 50.00 50.00 50.00 50.00 50.00 50.00 50.00 50.00 50.00 50.00 50.00 50.00 50.00 50.00 50.00 50.00 50.00 50.00 50.00 50.00 50.00 50.00 50.00 50.00 50.00 50.00 50.00 50.00 50.00 50.00 50.00 50.00 50.00 50.00 50.00 50.00 50.00 50.00 50.00 50.00 50.00 50.00 50.00 50.00 50.00 50.00 0.054978 0.000000 0.000000 0.054978 0.000000 0.000000 1780775127.738767 nohost 3.845997
FLASER 180 50.00 50.00 50.00 50.00 50.00 50.00 50.00 50.00 50.00 50.00 50.00 50.00 50.00 50.00 50.00 50.00 50.00 50.00 50.00 50.00 50.00 50.00 50.00 50.00 50.00 50.00 50.00 50.00 50.00 50.00 50.00 50.00 50.00 50.00 50.00 50.00 50.00 50.00 50.00 50.00 50.00 50.00 50.00 50.00 50.00 50.00 50.00 50.00 50.00 50.00 50.00 50.00 1.08 1.09 1.11 1.14 1.16 50.00 50.00 50.00 50.00 0.86 0.85 0.85 0.86 0.89 50.00 1.21 1.22 1.26 0.99 1.30 1.29 0.38 1.32 2.10 1.81 1.78 1.78 4.78 4.86 5.13 5.46 0.24 0.32 0.35 0.37 0.38 2.85 2.85 0.41 2.84 2.84 0.37 0.33 0.30 0.28 0.26 0.24 2.84 2.85 1.48 2.88 2.90 2.93 1.19 1.15 2.83 1.09 3.10 1.09 3.19 50.00 1.27 1.27 1.26 1.26 1.25 1.06 1.04 1.03 50.00 50.00 50.00 50.00 50.00 4.99 50.00 50.00 50.00 50.00 50.00 50.00 50.00 50.00 50.00 50.00 50.00 50.00 50.00 50.00 50.00 50.00 50.00 50.00 50.00 50.00 50.00 50.00 50.00 50.00 50.00 50.00 50.00 50.00 50.00 50.00 50.00 50.00 50.00 50.00 50.00 50.00 50.00 50.00 50.00 50.00 50.00 50.00 50.00 50.00 50.00 50.00 50.00 50.00 50.00 50.00 50.00 50.00 50.00 0.054978 0.000000 0.000000 0.054978 0.000000 0.000000 1780775127.738767 nohost 3.846784
