# message_name [message contents] ipc_timestamp ipc_hostname logger_timestamp
# message formats defined: PARAM SYNC ODOM FLASER RLASER TRUEPOS 
# PARAM param_name param_value
# SYNC tagname
# ODOM x y theta tv rv accel
# FLASER num_readings [range_readings] x y theta odom_x odom_y odom_theta
# RLASER num_readings [range_readings] x y theta odom_x odom_y odom_theta
# TRUEPOS true_x true_y true_theta odom_x odom_y odom_theta
# NMEA-GGA utc latitude lat_orient longitude long_orient gps_quality num_sattelites hdop sea_level alitude geo_sea_level geo_sep data_age
PARAM robot_use_laser on nohost 0
PARAM simulator_num_readings 180 nohost 0
PARAM robot_frontlaser_offset 0.0 nohost 0
PARAM robot_rearlaser_offset 0.0 nohost 0
ODOM 0.000000 0.000000 -0.000367 0.000000 0.000000 0.000000 1780668676.963996 nohost 3.068021
FLASER 180 50.00 50.00 50.00 50.00 50.00 50.00 50.00 50.00 50.00 50.00 50.00 50.00 50.00 50.00 50.00 50.00 50.00 50.00 50.00 50.00 50.00 50.00 50.00 50.00 50.00 50.00 50.00 50.00 50.00 0.58 50.00 50.00 0.54 0.54 0.52 0.51 0.51 0.50 0.49 0.49 0.49 0.48 0.48 0.47 0.47 0.47 50.00 0.47 0.47 0.47 0.47 0.48 50.00 0.48 0.49 0.49 0.50 0.51 0.51 0.52 0.53 0.54 0.55 0.56 0.58 0.59 0.60 0.62 50.00 0.58 0.59 0.60 0.61 0.66 0.70 0.72 0.77 0.81 0.87 0.94 1.00 1.10 1.21 1.33 1.54 1.70 2.12 2.85 4.78 5.91 50.00 50.00 5.84 3.93 50.00 2.17 1.86 1.60 1.39 1.25 1.16 1.05 0.96 0.89 0.83 0.80 0.74 0.71 0.67 0.66 0.63 0.60 0.58 0.56 0.54 0.53 0.52 0.51 0.49 0.49 0.48 0.47 0.46 0.45 0.45 50.00 0.44 0.43 0.43 50.00 0.42 0.42 0.42 0.42 0.42 50.00 50.00 0.42 50.00 0.42 0.42 0.43 0.43 0.44 0.44 50.00 50.00 50.00 50.00 50.00 50.00 50.00 50.00 50.00 50.00 50.00 50.00 50.00 50.00 50.00 50.00 50.00 50.00 50.00 50.00 50.00 50.00 50.00 50.00 50.00 50.00 50.00 50.00 50.00 50.00 50.00 50.00 50.00 50.00 50.00 0.000000 0.000000 -0.000367 0.000000 0.000000 -0.000367 1780668676.773157 nohost 3.070776
ODOM 0.000000 0.000000 -0.000367 0.000000 0.000000 0.000000 1780668676.981433 nohost 3.083334
ODOM 0.000000 0.000000 -0.000367 0.000000 0.000000 0.000000 1780668676.996825 nohost 3.099520
ODOM 0.000000 0.000000 -0.000367 0.000000 0.000000 0.000000 1780668677.007942 nohost 3.109419
ODOM 0.000000 0.000000 -0.000367 0.000000 0.000000 0.000000 1780668677.015269 nohost 3.116374
ODOM 0.000000 0.000000 -0.000367 0.000000 0.000000 0.000000 1780668677.026190 nohost 3.127635
ODOM 0.000000 0.000000 -0.000367 0.000000 0.000000 0.000000 1780668677.034887 nohost 3.135997
ODOM 0.000000 0.000000 -0.000367 0.000000 0.000000 0.000000 1780668677.041097 nohost 3.141971
ODOM 0.000000 0.000000 -0.000367 0.000000 0.000000 0.000000 1780668677.047740 nohost 3.148397
ODOM 0.000000 0.000000 -0.000367 0.000000 0.000000 0.000000 1780668677.055291 nohost 3.156903
ODOM 0.000000 0.000000 -0.000367 0.000000 0.000000 0.000000 1780668677.062460 nohost 3.163351
FLASER 180 50.00 50.00 50.00 50.00 50.00 50.00 50.00 50.00 50.00 50.00 50.00 50.00 50.00 50.00 50.00 50.00 50.00 50.00 50.00 50.00 50.00 50.00 50.00 50.00 50.00 50.00 50.00 50.00 50.00 50.00 50.00 50.00 0.55 0.53 0.52 50.00 50.00 0.50 0.49 0.49 0.48 0.48 0.48 0.48 0.47 0.47 0.47 50.00 0.47 0.47 0.47 0.48 0.48 0.48 50.00 0.49 0.50 0.51 0.51 0.52 0.53 0.54 0.55 0.56 0.57 0.59 0.60 0.61 50.00 2.10 0.59 0.60 0.61 0.66 0.70 0.72 0.76 0.81 0.88 0.95 1.00 1.10 1.22 1.33 1.54 1.70 2.12 2.85 4.78 5.92 50.00 50.00 5.84 3.92 50.00 2.13 1.83 1.58 1.40 1.24 1.17 1.04 0.96 0.89 0.84 0.80 0.75 0.70 0.67 0.66 0.63 0.60 0.58 0.56 0.54 50.00 0.52 0.51 0.50 0.49 0.48 0.47 0.46 0.46 0.45 0.44 0.44 50.00 0.43 0.42 0.42 0.42 0.42 0.42 50.00 50.00 0.42 0.42 0.42 50.00 50.00 0.43 0.43 0.44 0.44 50.00 50.00 50.00 0.47 50.00 0.49 50.00 50.00 50.00 50.00 50.00 50.00 50.00 50.00 50.00 50.00 50.00 50.00 50.00 50.00 50.00 50.00 50.00 50.00 50.00 50.00 50.00 50.00 50.00 50.00 50.00 50.00 50.00 50.00 50.00 0.000000 0.000000 -0.000367 0.000000 0.000000 -0.000367 1780668676.874152 nohost 3.167222
ODOM 0.000000 0.000000 -0.000367 0.000000 0.000000 0.000000 1780668677.069712 nohost 3.170687
ODOM 0.000000 0.000000 -0.000367 0.000000 0.000000 0.000000 1780668677.076963 nohost 3.177904
ODOM 0.000000 0.000000 -0.000367 0.000000 0.000000 0.000000 1780668677.082561 nohost 3.183211
ODOM 0.000000 0.000000 -0.000367 0.000000 0.000000 0.000000 1780668677.089253 nohost 3.190271
ODOM 0.000000 0.000000 -0.000367 0.000000 0.000000 0.000000 1780668677.097007 nohost 3.198227
ODOM 0.000000 0.000000 -0.000367 0.000000 0.000000 0.000000 1780668677.104306 nohost 3.205687
ODOM 0.000000 0.000000 -0.000367 0.000000 0.000000 0.000000 1780668677.111475 nohost 3.212286
ODOM 0.000000 0.000000 -0.000367 0.000000 0.000000 0.000000 1780668677.118011 nohost 3.219052
ODOM 0.000000 0.000000 -0.000349 0.000000 0.001745 0.000000 1780668677.124768 nohost 3.226248
ODOM 0.000000 0.000000 -0.000349 0.000000 0.000000 0.000000 1780668677.131696 nohost 3.232346
ODOM 0.000000 0.000000 -0.000367 0.000000 -0.001745 0.000000 1780668677.138844 nohost 3.239523
ODOM 0.000000 0.000000 -0.000367 0.000000 0.000000 0.000000 1780668677.144795 nohost 3.245611
ODOM 0.000000 0.000000 -0.000367 0.000000 0.000000 0.000000 1780668677.150472 nohost 3.251176
ODOM 0.000000 0.000000 -0.000367 0.000000 0.000000 0.000000 1780668677.156628 nohost 3.257365
ODOM 0.000000 0.000000 -0.000367 0.000000 0.000000 0.000000 1780668677.162653 nohost 3.263286
FLASER 180 50.00 50.00 50.00 50.00 50.00 50.00 50.00 50.00 50.00 50.00 50.00 50.00 50.00 50.00 50.00 50.00 50.00 50.00 50.00 50.00 50.00 50.00 50.00 50.00 50.00 50.00 50.00 50.00 0.60 50.00 0.56 50.00 0.55 0.53 0.52 50.00 0.50 0.50 0.50 0.49 0.48 0.48 0.48 0.48 0.47 0.47 0.47 50.00 0.47 0.47 0.47 0.48 0.48 0.48 0.49 0.49 0.50 0.51 0.51 0.52 0.53 0.54 0.55 0.56 0.58 0.59 0.60 0.61 50.00 2.10 0.59 0.60 0.61 0.66 0.70 0.72 0.76 0.82 0.87 0.94 1.00 1.10 1.22 1.33 1.54 1.70 2.12 2.86 4.78 5.91 50.00 50.00 5.84 3.93 50.00 2.27 1.84 1.59 1.43 1.26 1.17 1.05 0.96 0.90 0.83 0.80 0.75 0.71 0.67 0.66 0.63 0.60 0.58 0.56 0.54 0.53 0.53 0.51 0.50 0.49 0.48 0.47 0.46 0.45 0.45 50.00 0.44 0.43 0.43 50.00 0.42 0.42 0.42 0.42 50.00 50.00 50.00 0.42 50.00 0.42 0.42 0.43 0.43 0.44 0.44 0.45 50.00 0.47 50.00 50.00 50.00 50.00 50.00 50.00 50.00 50.00 50.00 50.00 50.00 50.00 50.00 50.00 50.00 50.00 50.00 50.00 50.00 50.00 50.00 50.00 50.00 50.00 50.00 50.00 50.00 50.00 50.00 50.00 50.00 50.00 0.000000 0.000000 -0.000367 0.000000 0.000000 -0.000367 1780668676.974517 nohost 3.267302
ODOM 0.000000 0.000000 -0.000367 0.000000 0.000000 0.000000 1780668677.168854 nohost 3.269468
ODOM 0.000000 0.000000 -0.000367 0.000000 0.000000 0.000000 1780668677.174711 nohost 3.275609
ODOM 0.000000 0.000000 -0.000367 0.000000 0.000000 0.000000 1780668677.180972 nohost 3.281682
ODOM 0.000000 0.000000 -0.000367 0.000000 0.000000 0.000000 1780668677.187693 nohost 3.288424
ODOM 0.000000 0.000000 -0.000367 0.000000 0.000000 0.000000 1780668677.195008 nohost 3.296123
ODOM 0.000000 0.000000 -0.000367 0.000000 0.000000 0.000000 1780668677.201760 nohost 3.302850
ODOM 0.000000 0.000000 -0.000367 0.000000 0.000000 0.000000 1780668677.209430 nohost 3.310388
ODOM 0.000000 0.000000 -0.000367 0.000000 0.000000 0.000000 1780668677.216002 nohost 3.317102
ODOM 0.000000 0.000000 -0.000367 0.000000 0.000000 0.000000 1780668677.222540 nohost 3.323443
ODOM 0.000000 0.000000 -0.000367 0.000000 0.000000 0.000000 1780668677.229732 nohost 3.330359
ODOM 0.000000 0.000000 -0.000367 0.000000 0.000000 0.000000 1780668677.235806 nohost 3.336697
ODOM 0.000000 0.000000 -0.000367 0.000000 0.000000 0.000000 1780668677.242090 nohost 3.342783
ODOM 0.000000 0.000000 -0.000367 0.000000 0.000000 0.000000 1780668677.249419 nohost 3.350028
ODOM 0.000000 0.000000 -0.000367 0.000000 0.000000 0.000000 1780668677.255944 nohost 3.357123
ODOM 0.000000 0.000000 -0.000367 0.000000 0.000000 0.000000 1780668677.262916 nohost 3.363773
FLASER 180 50.00 50.00 50.00 50.00 50.00 50.00 50.00 50.00 50.00 50.00 50.00 50.00 50.00 50.00 50.00 50.00 50.00 50.00 50.00 50.00 50.00 50.00 50.00 50.00 50.00 50.00 50.00 50.00 50.00 0.58 50.00 50.00 0.54 0.53 0.52 0.51 0.51 0.50 0.49 0.49 0.49 0.48 0.48 0.48 0.48 0.47 50.00 0.47 0.47 0.47 0.47 0.48 0.48 0.48 50.00 0.49 0.50 0.50 0.51 0.52 0.53 0.54 0.55 0.56 0.57 0.59 0.60 50.00 50.00 2.10 0.59 0.60 0.61 0.66 0.69 0.72 0.76 0.82 0.88 0.95 1.00 1.10 1.22 1.33 1.54 1.70 2.12 4.81 4.78 4.75 50.00 50.00 5.83 3.92 50.00 2.13 1.83 1.58 1.40 1.23 1.15 1.04 0.96 0.89 0.84 0.80 0.75 0.70 0.67 0.66 0.63 0.60 0.58 0.56 0.54 50.00 0.52 0.51 0.50 0.49 0.48 0.47 0.46 0.46 0.45 0.44 0.44 50.00 0.43 50.00 0.42 0.42 0.42 0.42 50.00 50.00 0.42 0.42 50.00 50.00 0.43 0.43 0.44 0.43 50.00 50.00 50.00 50.00 50.00 50.00 0.49 50.00 50.00 50.00 50.00 50.00 50.00 50.00 50.00 50.00 50.00 50.00 50.00 50.00 50.00 50.00 50.00 50.00 50.00 50.00 50.00 50.00 50.00 50.00 50.00 50.00 50.00 50.00 50.00 50.00 0.000000 0.000000 -0.000367 0.000000 0.000000 -0.000367 1780668677.072938 nohost 3.366766
ODOM 0.000000 0.000000 -0.000367 0.000000 0.000000 0.000000 1780668677.269460 nohost 3.370425
ODOM 0.000000 0.000000 -0.000367 0.000000 0.000000 0.000000 1780668677.276157 nohost 3.377743
ODOM 0.000000 0.000000 -0.000367 0.000000 0.000000 0.000000 1780668677.284034 nohost 3.384790
ODOM 0.000000 0.000000 -0.000367 0.000000 0.000000 0.000000 1780668677.291216 nohost 3.392122
ODOM 0.000000 0.000000 -0.000367 0.000000 0.000000 0.000000 1780668677.298498 nohost 3.399433
ODOM 0.000000 0.000000 -0.000367 0.000000 0.000000 0.000000 1780668677.306702 nohost 3.407920
ODOM 0.000000 0.000000 -0.000367 0.000000 0.000000 0.000000 1780668677.313617 nohost 3.414540
ODOM 0.000000 0.000000 -0.000367 0.000000 0.000000 0.000000 1780668677.320689 nohost 3.421389
ODOM 0.000000 0.000000 -0.000367 0.000000 0.000000 0.000000 1780668677.328382 nohost 3.429139
ODOM 0.000000 0.000000 -0.000367 0.000000 0.000000 0.000000 1780668677.334534 nohost 3.435376
ODOM 0.000000 0.000000 -0.000367 0.000000 0.000000 0.000000 1780668677.341077 nohost 3.441975
ODOM 0.000000 0.000000 -0.000367 0.000000 0.000000 0.000000 1780668677.348261 nohost 3.449170
ODOM 0.000000 0.000000 -0.000367 0.000000 0.000000 0.000000 1780668677.354731 nohost 3.455571
ODOM 0.000000 0.000000 -0.000367 0.000000 0.000000 0.000000 1780668677.360594 nohost 3.461239
FLASER 180 50.00 50.00 50.00 50.00 50.00 50.00 50.00 50.00 50.00 50.00 50.00 50.00 50.00 50.00 50.00 50.00 50.00 50.00 50.00 50.00 50.00 50.00 50.00 50.00 50.00 50.00 50.00 50.00 50.00 0.58 50.00 0.55 0.54 0.54 0.52 0.52 50.00 0.50 0.49 0.49 50.00 0.48 0.48 0.48 0.48 0.47 50.00 50.00 0.47 0.47 0.47 0.48 0.48 0.48 50.00 0.49 0.50 0.50 0.51 0.52 0.53 0.54 0.55 0.56 0.57 0.59 0.60 0.61 50.00 2.09 0.59 0.60 0.61 0.66 0.70 0.72 0.77 0.81 0.87 0.94 1.00 1.10 1.23 1.32 1.55 1.72 2.12 4.82 4.78 50.00 50.00 50.00 5.83 3.92 50.00 2.12 1.82 1.58 1.40 1.24 1.15 1.05 0.96 0.89 0.83 0.80 0.75 0.71 0.67 0.66 0.63 0.60 0.58 0.56 0.54 50.00 0.52 0.51 0.49 0.49 0.48 0.47 0.46 0.45 0.45 0.44 0.44 50.00 0.43 50.00 0.42 0.42 0.42 0.42 50.00 50.00 50.00 50.00 50.00 0.43 0.43 0.43 0.43 0.44 0.44 0.45 50.00 50.00 50.00 50.00 50.00 50.00 50.00 50.00 50.00 50.00 50.00 50.00 50.00 50.00 50.00 50.00 50.00 50.00 50.00 50.00 50.00 50.00 50.00 50.00 50.00 50.00 50.00 50.00 50.00 50.00 50.00 50.00 50.00 50.00 0.000000 0.000000 -0.000367 0.000000 0.000000 -0.000367 1780668677.173539 nohost 3.466705
ODOM 0.000000 0.000000 -0.000367 0.000000 0.000000 0.000000 1780668677.366033 nohost 3.467413
ODOM 0.000000 0.000000 -0.000367 0.000000 0.000000 0.000000 1780668677.373197 nohost 3.474131
ODOM 0.000000 0.000000 -0.000367 0.000000 0.000000 0.000000 1780668677.380283 nohost 3.481033
ODOM 0.000000 0.000000 -0.000367 0.000000 0.000000 0.000000 1780668677.386450 nohost 3.487620
ODOM 0.000000 0.000000 -0.000367 0.000000 0.000000 0.000000 1780668677.392902 nohost 3.493676
ODOM 0.000000 0.000000 -0.000367 0.000000 0.000000 0.000000 1780668677.399190 nohost 3.499830
ODOM 0.000000 0.000000 -0.000367 0.000000 0.000000 0.000000 1780668677.404787 nohost 3.505462
ODOM 0.000000 0.000000 -0.000367 0.000000 0.000000 0.000000 1780668677.410089 nohost 3.510846
ODOM 0.000000 0.000000 -0.000367 0.000000 0.000000 0.000000 1780668677.416295 nohost 3.518023
ODOM 0.000000 0.000000 -0.000367 0.000000 0.000000 0.000000 1780668677.423233 nohost 3.524233
ODOM 0.000000 0.000000 -0.000367 0.000000 0.000000 0.000000 1780668677.429217 nohost 3.529891
ODOM 0.000000 0.000000 -0.000367 0.000000 0.000000 0.000000 1780668677.435621 nohost 3.536390
ODOM 0.000000 0.000000 -0.000367 0.000000 0.000000 0.000000 1780668677.441026 nohost 3.541716
ODOM 0.000000 0.000000 -0.000367 0.000000 0.000000 0.000000 1780668677.449252 nohost 3.549998
ODOM 0.000000 0.000000 -0.000367 0.000000 0.000000 0.000000 1780668677.456505 nohost 3.557936
ODOM 0.000000 0.000000 -0.000367 0.000000 0.000000 0.000000 1780668677.464456 nohost 3.565230
FLASER 180 50.00 50.00 50.00 50.00 50.00 50.00 50.00 50.00 50.00 50.00 50.00 50.00 50.00 50.00 50.00 50.00 50.00 50.00 50.00 50.00 50.00 50.00 50.00 50.00 50.00 50.00 50.00 50.00 50.00 50.00 50.00 50.00 0.54 0.53 0.52 0.51 0.51 0.50 0.50 0.49 0.49 50.00 0.47 0.47 0.47 0.48 50.00 0.47 0.47 0.47 0.47 0.48 50.00 0.48 50.00 0.49 0.50 0.50 0.51 0.52 0.53 0.54 0.55 0.57 0.57 0.59 0.60 50.00 50.00 2.10 0.59 0.60 0.61 0.66 0.69 0.72 0.76 0.82 0.88 0.95 1.00 1.09 1.22 1.33 1.54 1.70 2.12 4.81 4.78 5.92 50.00 50.00 5.83 3.90 50.00 2.17 1.86 1.58 1.40 1.23 1.15 1.04 0.96 0.89 0.83 0.80 0.75 0.71 0.67 0.66 0.63 0.60 0.58 0.56 0.54 50.00 0.52 0.51 0.50 0.49 0.48 0.47 0.46 0.46 0.45 0.44 0.44 50.00 0.43 50.00 0.42 0.42 0.42 50.00 50.00 50.00 50.00 50.00 50.00 50.00 0.43 0.43 0.44 0.43 0.44 0.45 50.00 50.00 50.00 50.00 0.49 50.00 50.00 50.00 50.00 50.00 50.00 50.00 50.00 50.00 50.00 50.00 50.00 50.00 50.00 50.00 50.00 50.00 50.00 50.00 50.00 50.00 50.00 50.00 50.00 50.00 50.00 50.00 50.00 50.00 0.000000 0.000000 -0.000367 0.000000 0.000000 -0.000367 1780668677.274711 nohost 3.567516
ODOM 0.000000 0.000000 -0.000367 0.000000 0.000000 0.000000 1780668677.470649 nohost 3.571592
ODOM 0.000000 0.000000 -0.000367 0.000000 0.000000 0.000000 1780668677.477337 nohost 3.578366
ODOM 0.000000 0.000000 -0.000367 0.000000 0.000000 0.000000 1780668677.483315 nohost 3.584212
ODOM 0.000000 0.000000 -0.000367 0.000000 0.000000 0.000000 1780668677.489460 nohost 3.590602
ODOM 0.000000 0.000000 -0.000367 0.000000 0.000000 0.000000 1780668677.495088 nohost 3.595970
ODOM 0.000000 0.000000 -0.000367 0.000000 0.000000 0.000000 1780668677.500723 nohost 3.601463
ODOM 0.000000 0.000000 -0.000367 0.000000 0.000000 0.000000 1780668677.506311 nohost 3.607171
ODOM 0.000000 0.000000 -0.000367 0.000000 0.000000 0.000000 1780668677.512413 nohost 3.613403
ODOM 0.000000 0.000000 -0.000367 0.000000 0.000000 0.000000 1780668677.518944 nohost 3.620144
ODOM 0.000000 0.000000 -0.000367 0.000000 0.000000 0.000000 1780668677.525059 nohost 3.625922
ODOM 0.000000 0.000000 -0.000367 0.000000 0.000000 0.000000 1780668677.531226 nohost 3.631963
ODOM 0.000000 0.000000 -0.000367 0.000000 0.000000 0.000000 1780668677.536484 nohost 3.637752
ODOM 0.000000 0.000000 -0.000367 0.000000 0.000000 0.000000 1780668677.543206 nohost 3.644053
ODOM 0.000000 0.000000 -0.000367 0.000000 0.000000 0.000000 1780668677.549757 nohost 3.650657
ODOM 0.000000 0.000000 -0.000367 0.000000 0.000000 0.000000 1780668677.555730 nohost 3.656680
ODOM 0.000000 0.000000 -0.000367 0.000000 0.000000 0.000000 1780668677.562432 nohost 3.663310
FLASER 180 50.00 50.00 50.00 50.00 50.00 50.00 50.00 50.00 50.00 50.00 50.00 50.00 50.00 50.00 50.00 50.00 50.00 50.00 50.00 50.00 50.00 50.00 50.00 50.00 50.00 50.00 50.00 50.00 50.00 50.00 0.57 50.00 0.54 0.53 0.53 0.51 0.51 0.50 0.50 0.49 0.49 50.00 0.48 0.47 0.47 0.47 50.00 0.47 0.47 0.47 50.00 0.48 50.00 0.48 50.00 0.49 0.50 0.50 0.51 0.52 0.53 0.54 0.55 0.57 0.57 0.59 0.60 50.00 50.00 2.10 0.59 0.60 0.61 0.66 0.69 0.72 0.76 0.82 0.88 0.95 1.00 1.09 1.22 1.32 1.54 1.67 2.12 4.81 4.78 5.92 9.61 50.00 5.84 3.93 50.00 2.21 1.84 1.59 1.43 1.26 1.17 1.05 0.96 0.89 0.83 0.80 0.74 0.70 0.67 0.66 0.63 0.60 0.58 0.56 0.54 50.00 0.52 0.51 0.50 0.49 0.48 0.47 0.46 0.46 0.45 50.00 0.44 50.00 0.43 50.00 0.42 0.42 0.42 0.42 50.00 50.00 0.42 0.42 50.00 50.00 0.43 0.43 0.44 0.43 0.45 0.45 50.00 50.00 50.00 50.00 0.49 50.00 50.00 50.00 50.00 50.00 50.00 50.00 50.00 50.00 50.00 50.00 50.00 50.00 50.00 50.00 50.00 50.00 50.00 50.00 50.00 50.00 50.00 50.00 50.00 50.00 50.00 50.00 50.00 50.00 0.000000 0.000000 -0.000367 0.000000 0.000000 -0.000367 1780668677.375295 nohost 3.668611
ODOM 0.000000 0.000000 -0.000384 0.000000 -0.001745 0.000000 1780668677.568748 nohost 3.669826
ODOM 0.000000 0.000000 -0.000384 0.000000 0.000000 0.000000 1780668677.574864 nohost 3.675627
ODOM 0.000000 0.000000 -0.000367 0.000000 0.001745 0.000000 1780668677.580490 nohost 3.681366
ODOM 0.000000 0.000000 -0.000367 0.000000 0.000000 0.000000 1780668677.586199 nohost 3.687041
ODOM 0.000000 0.000000 -0.000367 0.000000 0.000000 0.000000 1780668677.592403 nohost 3.693477
ODOM 0.000000 0.000000 -0.000367 0.000000 0.000000 0.000000 1780668677.598529 nohost 3.699316
ODOM 0.000000 0.000000 -0.000367 0.000000 0.000000 0.000000 1780668677.603926 nohost 3.704879
ODOM 0.000000 0.000000 -0.000367 0.000000 0.000000 0.000000 1780668677.610403 nohost 3.711127
ODOM 0.000000 0.000000 -0.000367 0.000000 0.000000 0.000000 1780668677.616300 nohost 3.717190
ODOM 0.000000 0.000000 -0.000367 0.000000 0.000000 0.000000 1780668677.622844 nohost 3.723556
ODOM 0.000000 0.000000 -0.000367 0.000000 0.000000 0.000000 1780668677.629220 nohost 3.730266
ODOM 0.000000 0.000000 -0.000367 0.000000 0.000000 0.000000 1780668677.635041 nohost 3.735882
ODOM 0.000000 0.000000 -0.000367 0.000000 0.000000 0.000000 1780668677.641553 nohost 3.742244
ODOM 0.000000 0.000000 -0.000367 0.000000 0.000000 0.000000 1780668677.647888 nohost 3.749110
ODOM 0.000000 0.000000 -0.000367 0.000000 0.000000 0.000000 1780668677.654121 nohost 3.754842
ODOM 0.000000 0.000000 -0.000367 0.000000 0.000000 0.000000 1780668677.660677 nohost 3.761447
ODOM 0.000000 0.000000 -0.000367 0.000000 0.000000 0.000000 1780668677.666932 nohost 3.768442
FLASER 180 50.00 50.00 50.00 50.00 50.00 50.00 50.00 50.00 50.00 50.00 50.00 50.00 50.00 50.00 50.00 50.00 50.00 50.00 50.00 50.00 50.00 50.00 50.00 50.00 50.00 50.00 50.00 50.00 50.00 0.58 50.00 0.55 0.54 0.54 0.52 0.52 50.00 0.51 0.49 0.49 50.00 0.48 0.48 0.48 0.47 0.47 50.00 50.00 0.47 0.47 0.47 0.48 0.48 0.48 50.00 0.49 0.50 0.50 0.51 0.52 0.53 0.54 0.55 0.56 0.57 0.59 0.60 0.61 50.00 2.09 0.59 0.60 0.61 0.66 0.69 0.72 0.76 0.82 0.87 0.95 1.00 1.10 1.22 1.33 1.54 1.70 2.12 4.81 4.78 4.76 50.00 50.00 50.00 3.93 50.00 2.16 1.85 1.60 1.41 1.26 1.16 1.05 0.96 0.88 0.83 0.80 0.74 0.71 0.67 0.66 0.63 0.60 0.58 0.56 0.54 50.00 0.52 0.51 0.50 0.49 0.48 0.47 0.46 0.46 0.45 0.44 0.44 50.00 0.43 0.42 0.42 0.42 0.42 0.42 50.00 50.00 0.42 0.42 50.00 50.00 0.43 0.43 0.43 0.44 0.45 50.00 50.00 50.00 50.00 50.00 0.49 50.00 50.00 50.00 50.00 50.00 50.00 50.00 50.00 50.00 50.00 50.00 50.00 50.00 50.00 50.00 50.00 50.00 50.00 50.00 50.00 50.00 50.00 50.00 50.00 50.00 50.00 50.00 50.00 50.00 0.000000 0.000000 -0.000367 0.000000 0.000000 -0.000367 1780668677.473600 nohost 3.769056
ODOM 0.000000 0.000000 -0.000367 0.000000 0.000000 0.000000 1780668677.673747 nohost 3.774502
ODOM 0.000000 0.000000 -0.000367 0.000000 0.000000 0.000000 1780668677.680761 nohost 3.781486
ODOM 0.000000 0.000000 -0.000367 0.000000 0.000000 0.000000 1780668677.688261 nohost 3.789620
ODOM 0.000000 0.000000 -0.000367 0.000000 0.000000 0.000000 1780668677.695455 nohost 3.796396
ODOM 0.000000 0.000000 -0.000367 0.000000 0.000000 0.000000 1780668677.703999 nohost 3.804774
ODOM 0.000000 0.000000 -0.000367 0.000000 0.000000 0.000000 1780668677.715344 nohost 3.816419
ODOM 0.000000 0.000000 -0.000367 0.000000 0.000000 0.000000 1780668677.723114 nohost 3.823754
ODOM 0.000000 0.000000 -0.000367 0.000000 0.000000 0.000000 1780668677.736265 nohost 3.836922
ODOM 0.000000 0.000000 -0.000367 0.000000 0.000000 0.000000 1780668677.745240 nohost 3.846446
ODOM 0.000000 0.000000 -0.000367 0.000000 0.000000 0.000000 1780668677.753178 nohost 3.854050
FLASER 180 50.00 50.00 50.00 50.00 50.00 50.00 50.00 50.00 50.00 50.00 50.00 50.00 50.00 50.00 50.00 50.00 50.00 50.00 50.00 50.00 50.00 50.00 50.00 50.00 50.00 50.00 50.00 50.00 50.00 50.00 0.57 50.00 0.54 0.53 0.53 0.51 0.51 0.50 0.50 0.49 0.49 50.00 0.48 0.47 0.47 0.47 50.00 0.47 50.00 0.47 50.00 0.48 0.48 0.49 0.49 0.49 0.50 0.51 0.51 0.52 0.53 0.54 0.55 0.56 0.58 0.59 0.60 0.61 50.00 0.58 0.59 0.60 0.61 0.66 0.70 0.72 0.76 0.81 0.87 0.94 1.00 1.10 1.23 1.35 1.56 1.73 2.12 4.81 4.78 4.76 50.00 50.00 4.69 3.93 50.00 2.16 1.85 1.60 1.41 1.25 1.16 1.05 0.96 0.88 0.83 0.80 0.74 0.71 0.67 0.65 0.63 0.60 0.58 0.56 0.54 50.00 0.52 0.51 0.50 0.49 0.48 0.47 0.46 0.46 0.45 0.44 0.44 0.43 0.43 50.00 0.42 0.42 0.42 0.42 50.00 50.00 50.00 50.00 50.00 50.00 0.43 0.43 0.44 0.43 0.45 0.45 50.00 50.00 50.00 50.00 50.00 50.00 50.00 50.00 50.00 50.00 50.00 50.00 50.00 50.00 50.00 50.00 50.00 50.00 50.00 50.00 50.00 50.00 50.00 50.00 50.00 50.00 50.00 50.00 50.00 50.00 50.00 50.00 50.00 50.00 0.000000 0.000000 -0.000367 0.000000 0.000000 -0.000367 1780668677.574492 nohost 3.867571
ODOM 0.000000 0.000000 -0.000367 0.000000 0.000000 0.000000 1780668677.767085 nohost 3.868253
ODOM 0.000000 0.000000 -0.000367 0.000000 0.000000 0.000000 1780668677.774361 nohost 3.875503
ODOM 0.000000 0.000000 -0.000367 0.000000 0.000000 0.000000 1780668677.785919 nohost 3.886798
ODOM 0.000000 0.000000 -0.000367 0.000000 0.000000 0.000000 1780668677.795419 nohost 3.896047
ODOM 0.000000 0.000000 -0.000367 0.000000 0.000000 0.000000 1780668677.805306 nohost 3.906031
ODOM 0.000000 0.000000 -0.000367 0.000000 0.000000 0.000000 1780668677.815350 nohost 3.916007
ODOM 0.000000 0.000000 -0.000367 0.000000 0.000000 0.000000 1780668677.825132 nohost 3.925828
ODOM 0.000000 0.000000 -0.000367 0.000000 0.000000 0.000000 1780668677.835741 nohost 3.936401
ODOM 0.000000 0.000000 -0.000367 0.000000 0.000000 0.000000 1780668677.853159 nohost 3.954181
ODOM 0.000000 0.000000 -0.000367 0.000000 0.000000 0.000000 1780668677.860409 nohost 3.962111
FLASER 180 50.00 50.00 50.00 50.00 50.00 50.00 50.00 50.00 50.00 50.00 50.00 50.00 50.00 50.00 50.00 50.00 50.00 50.00 50.00 50.00 50.00 50.00 50.00 50.00 50.00 50.00 50.00 50.00 50.00 50.00 50.00 50.00 0.55 0.53 0.52 0.52 50.00 0.50 0.50 0.49 0.48 0.48 0.48 0.48 0.47 0.47 0.47 50.00 0.47 0.47 0.47 0.48 0.48 0.49 50.00 0.49 0.50 0.51 0.51 0.52 0.53 0.54 0.55 0.56 0.58 0.59 0.60 0.61 50.00 2.10 0.59 0.60 0.61 0.66 0.69 0.72 0.76 0.82 0.88 0.95 0.99 1.09 1.22 1.32 1.55 1.71 2.12 4.82 4.78 50.00 50.00 50.00 5.83 3.92 50.00 2.19 1.83 1.58 1.40 1.26 1.17 1.05 0.96 0.90 0.83 0.80 0.75 0.71 0.68 0.66 0.63 0.60 0.58 0.56 0.54 0.53 0.52 0.51 0.50 0.49 0.48 0.47 0.46 0.45 0.45 0.44 0.44 50.00 0.43 0.42 0.42 0.42 0.42 0.42 50.00 50.00 0.42 0.42 50.00 50.00 0.43 0.43 0.43 0.44 0.45 50.00 50.00 50.00 50.00 50.00 0.49 50.00 50.00 50.00 50.00 50.00 50.00 50.00 50.00 50.00 50.00 50.00 50.00 50.00 50.00 50.00 50.00 50.00 50.00 50.00 50.00 50.00 50.00 50.00 50.00 50.00 50.00 50.00 50.00 50.00 0.000000 0.000000 -0.000367 0.000000 0.000000 -0.000367 1780668677.675463 nohost 3.968976
ODOM 0.000000 0.000000 -0.000367 0.000000 0.000000 0.000000 1780668677.869956 nohost 3.971070
ODOM 0.000000 0.000000 -0.000367 0.000000 0.000000 0.000000 1780668677.876690 nohost 3.977466
ODOM 0.000000 0.000000 -0.000367 0.000000 0.000000 0.000000 1780668677.886466 nohost 3.987396
ODOM 0.000000 0.000000 -0.000367 0.000000 0.000000 0.000000 1780668677.894027 nohost 3.994766
ODOM 0.000000 0.000000 -0.000367 0.000000 0.000000 0.000000 1780668677.906240 nohost 4.007068
ODOM 0.000000 0.000000 -0.000367 0.000000 0.000000 0.000000 1780668677.915720 nohost 4.017000
ODOM 0.000000 0.000000 -0.000367 0.000000 0.000000 0.000000 1780668677.926543 nohost 4.027252
ODOM 0.000000 0.000000 -0.000367 0.000000 0.000000 0.000000 1780668677.935797 nohost 4.036753
ODOM 0.000000 0.000000 -0.000367 0.000000 0.000000 0.000000 1780668677.946002 nohost 4.046878
ODOM 0.000000 0.000000 -0.000367 0.000000 0.000000 0.000000 1780668677.955829 nohost 4.056504
ODOM 0.000000 0.000000 -0.000367 0.000000 0.000000 0.000000 1780668677.965607 nohost 4.066348
FLASER 180 50.00 50.00 50.00 50.00 50.00 50.00 50.00 50.00 50.00 50.00 50.00 50.00 50.00 50.00 50.00 50.00 50.00 50.00 50.00 50.00 50.00 50.00 50.00 50.00 50.00 50.00 50.00 50.00 50.00 50.00 50.00 0.55 0.54 0.54 0.52 0.52 50.00 0.51 0.49 0.49 0.48 0.48 0.48 0.48 0.47 0.47 0.47 50.00 0.47 0.48 0.47 0.48 0.48 0.48 50.00 0.49 0.50 0.51 0.51 0.52 0.53 0.54 0.55 0.56 0.58 0.59 0.60 0.61 50.00 2.10 0.59 0.60 0.61 0.66 0.69 0.72 0.76 0.82 0.88 0.95 1.00 1.11 1.22 1.33 1.54 1.70 2.12 4.81 4.78 5.92 50.00 50.00 4.72 3.93 50.00 50.00 1.86 1.58 1.40 1.23 1.15 1.04 0.96 0.89 0.83 0.80 0.75 0.71 0.67 0.66 0.63 0.60 0.58 0.56 0.54 0.53 0.52 0.51 0.50 0.49 0.48 0.47 0.46 0.45 0.45 50.00 0.44 0.43 0.43 0.42 50.00 0.42 0.42 0.42 50.00 50.00 50.00 0.42 50.00 0.42 0.42 0.43 0.43 0.44 0.44 50.00 50.00 50.00 50.00 50.00 50.00 50.00 50.00 50.00 50.00 50.00 50.00 50.00 50.00 50.00 50.00 50.00 50.00 50.00 50.00 50.00 50.00 50.00 50.00 50.00 50.00 50.00 50.00 50.00 50.00 50.00 50.00 50.00 50.00 50.00 0.000000 0.000000 -0.000367 0.000000 0.000000 -0.000367 1780668677.776429 nohost 4.069318
ODOM 0.000000 0.000000 -0.000367 0.000000 0.000000 0.000000 1780668677.975289 nohost 4.075872
ODOM 0.000000 0.000000 -0.000367 0.000000 0.000000 0.000000 1780668677.985782 nohost 4.086407
ODOM 0.000000 0.000000 -0.000367 0.000000 0.000000 0.000000 1780668677.995308 nohost 4.096231
ODOM 0.000000 0.000000 -0.000367 0.000000 0.000000 0.000000 1780668678.006469 nohost 4.107714
ODOM 0.000000 0.000000 -0.000367 0.000000 0.000000 0.000000 1780668678.016360 nohost 4.117198
ODOM 0.000000 0.000000 -0.000367 0.000000 0.000000 0.000000 1780668678.026765 nohost 4.127640
ODOM 0.000000 0.000000 -0.000367 0.000000 0.000000 0.000000 1780668678.035279 nohost 4.136017
ODOM 0.000000 0.000000 -0.000367 0.000000 0.000000 0.000000 1780668678.045487 nohost 4.146234
ODOM 0.000000 0.000000 -0.000367 0.000000 0.000000 0.000000 1780668678.056381 nohost 4.157781
ODOM 0.000000 0.000000 -0.000367 0.000000 0.000000 0.000000 1780668678.065749 nohost 4.166687
FLASER 180 50.00 50.00 50.00 50.00 50.00 50.00 50.00 50.00 50.00 50.00 50.00 50.00 50.00 50.00 50.00 50.00 50.00 50.00 50.00 50.00 50.00 50.00 50.00 50.00 50.00 50.00 50.00 50.00 50.00 0.58 50.00 50.00 0.54 0.54 0.52 0.51 50.00 0.50 0.49 0.49 0.49 0.48 0.48 0.48 0.48 0.47 50.00 0.47 0.47 0.47 0.47 0.48 50.00 0.48 50.00 0.49 0.50 0.50 0.51 0.52 0.53 0.54 0.55 0.56 0.58 0.59 0.60 50.00 50.00 2.11 0.59 0.60 0.61 0.66 0.69 0.72 0.76 0.81 0.87 0.94 0.99 1.10 1.22 1.32 1.55 1.72 2.12 4.82 4.78 50.00 50.00 50.00 5.84 3.93 50.00 50.00 1.84 1.62 1.41 1.26 1.16 1.05 0.96 0.88 0.83 0.80 0.74 0.71 0.67 0.65 0.63 0.60 0.58 0.56 0.54 50.00 0.53 0.51 0.49 0.49 0.48 0.47 0.46 0.45 0.45 0.44 0.44 0.43 0.43 50.00 0.42 0.42 0.42 0.42 50.00 0.41 50.00 50.00 50.00 0.43 0.42 0.43 0.43 0.44 0.44 0.44 50.00 0.47 50.00 50.00 50.00 50.00 50.00 50.00 50.00 50.00 50.00 50.00 50.00 50.00 50.00 50.00 50.00 50.00 50.00 50.00 50.00 50.00 50.00 50.00 50.00 50.00 50.00 50.00 50.00 50.00 50.00 50.00 50.00 50.00 0.000000 0.000000 -0.000367 0.000000 0.000000 -0.000367 1780668677.875166 nohost 4.170196
ODOM 0.000000 0.000000 -0.000367 0.000000 0.000000 0.000000 1780668678.075327 nohost 4.175916
ODOM 0.000000 0.000000 -0.000367 0.000000 0.000000 0.000000 1780668678.086767 nohost 4.187814
ODOM 0.000000 0.000000 -0.000367 0.000000 0.000000 0.000000 1780668678.096829 nohost 4.197611
ODOM 0.000000 0.000000 -0.000367 0.000000 0.000000 0.000000 1780668678.106075 nohost 4.206752
ODOM 0.000000 0.000000 -0.000349 0.000000 0.001745 0.000000 1780668678.116070 nohost 4.217091
ODOM 0.000000 0.000000 -0.000349 0.000000 0.000000 0.000000 1780668678.126105 nohost 4.227098
ODOM 0.000000 0.000000 -0.000349 0.000000 0.000000 0.000000 1780668678.136182 nohost 4.237075
ODOM 0.000000 0.000000 -0.000349 0.000000 0.000000 0.000000 1780668678.145859 nohost 4.246649
ODOM 0.000000 0.000000 -0.000349 0.000000 0.000000 0.000000 1780668678.156826 nohost 4.257695
ODOM 0.000000 0.000000 -0.000349 0.000000 0.000000 0.000000 1780668678.167246 nohost 4.268085
FLASER 180 50.00 50.00 50.00 50.00 50.00 50.00 50.00 50.00 50.00 50.00 50.00 50.00 50.00 50.00 50.00 50.00 50.00 50.00 50.00 50.00 50.00 50.00 50.00 50.00 50.00 50.00 50.00 50.00 50.00 50.00 50.00 50.00 0.55 0.53 0.52 50.00 0.50 0.50 0.50 0.49 0.48 0.48 0.48 0.48 0.47 0.47 0.48 50.00 0.47 0.47 0.47 0.48 50.00 0.49 0.49 0.49 0.50 0.51 0.51 0.52 0.53 0.54 0.55 0.56 0.57 0.59 0.61 0.62 50.00 2.09 0.59 0.60 0.61 0.66 0.70 0.72 0.77 0.81 0.87 0.94 0.99 1.10 1.22 1.32 1.55 1.72 2.12 4.82 4.78 5.91 50.00 50.00 5.84 3.93 50.00 2.23 1.86 1.58 1.39 1.25 1.15 1.04 0.96 0.88 0.83 0.80 0.75 0.71 0.67 0.66 0.63 0.60 0.58 0.56 0.54 50.00 0.53 0.51 0.50 0.49 0.48 0.47 0.46 0.45 0.45 0.44 0.44 0.43 0.43 50.00 0.42 0.42 0.42 0.42 50.00 50.00 50.00 50.00 50.00 0.42 0.43 0.43 0.44 0.44 0.44 0.45 50.00 50.00 50.00 50.00 50.00 50.00 50.00 50.00 50.00 50.00 50.00 50.00 50.00 50.00 50.00 50.00 50.00 50.00 50.00 50.00 50.00 50.00 50.00 50.00 50.00 50.00 50.00 50.00 50.00 50.00 50.00 50.00 50.00 50.00 0.000000 0.000000 -0.000349 0.000000 0.000000 -0.000349 1780668677.975574 nohost 4.270726
ODOM 0.000000 0.000000 -0.000349 0.000000 0.000000 0.000000 1780668678.176130 nohost 4.276828
ODOM 0.000000 0.000000 -0.000349 0.000000 0.000000 0.000000 1780668678.185619 nohost 4.286330
ODOM 0.000000 0.000000 -0.000367 0.000000 -0.001745 0.000000 1780668678.196985 nohost 4.298010
ODOM 0.000000 0.000000 -0.000367 0.000000 0.000000 0.000000 1780668678.206681 nohost 4.307517
ODOM 0.000000 0.000000 -0.000367 0.000000 0.000000 0.000000 1780668678.216771 nohost 4.317509
ODOM 0.000000 0.000000 -0.000367 0.000000 0.000000 0.000000 1780668678.226572 nohost 4.327325
ODOM 0.000000 0.000000 -0.000367 0.000000 0.000000 0.000000 1780668678.236243 nohost 4.337098
ODOM 0.000000 0.000000 -0.000367 0.000000 0.000000 0.000000 1780668678.246035 nohost 4.346998
ODOM 0.000000 0.000000 -0.000367 0.000000 0.000000 0.000000 1780668678.256173 nohost 4.357141
ODOM 0.000000 0.000000 -0.000367 0.000000 0.000000 0.000000 1780668678.266749 nohost 4.367528
FLASER 180 50.00 50.00 50.00 50.00 50.00 50.00 50.00 50.00 50.00 50.00 50.00 50.00 50.00 50.00 50.00 50.00 50.00 50.00 50.00 50.00 50.00 50.00 50.00 50.00 50.00 50.00 50.00 50.00 50.00 50.00 0.57 50.00 0.54 0.53 0.52 0.51 0.51 0.50 0.50 0.49 0.49 50.00 0.48 0.47 0.47 0.47 50.00 0.47 0.47 0.47 50.00 0.48 0.48 0.49 0.49 0.49 0.50 0.51 0.51 0.52 0.53 0.54 0.55 0.57 0.58 0.59 0.60 50.00 50.00 2.10 0.59 0.60 0.61 0.66 0.69 0.72 0.76 0.81 0.88 0.95 1.00 1.09 1.22 1.34 1.54 1.67 2.12 4.81 4.78 5.91 9.62 50.00 5.84 3.93 50.00 2.21 1.84 1.59 1.41 1.26 1.17 1.05 0.96 0.89 0.83 0.80 0.74 0.71 0.67 0.66 0.63 0.60 0.58 0.56 0.54 50.00 0.52 0.51 0.50 0.49 0.48 0.47 0.46 0.46 0.45 0.44 0.44 50.00 0.43 50.00 0.42 0.42 0.42 0.42 50.00 50.00 0.42 0.42 50.00 50.00 0.43 0.43 0.44 0.43 0.45 0.45 50.00 50.00 50.00 50.00 0.49 50.00 50.00 50.00 50.00 50.00 50.00 50.00 50.00 50.00 50.00 50.00 50.00 50.00 50.00 50.00 50.00 50.00 50.00 50.00 50.00 50.00 50.00 50.00 50.00 50.00 50.00 50.00 50.00 50.00 0.000000 0.000000 -0.000367 0.000000 0.000000 -0.000367 1780668678.076553 nohost 4.371973
ODOM 0.000000 0.000000 -0.000367 0.000000 0.000000 0.000000 1780668678.276990 nohost 4.377703
ODOM 0.000000 0.000000 -0.000367 0.000000 0.000000 0.000000 1780668678.286479 nohost 4.387352
ODOM 0.000000 0.000000 -0.000367 0.000000 0.000000 0.000000 1780668678.296851 nohost 4.397813
ODOM 0.000000 0.000000 -0.000367 0.000000 0.000000 0.000000 1780668678.305340 nohost 4.406147
ODOM 0.000000 0.000000 -0.000367 0.000000 0.000000 0.000000 1780668678.316073 nohost 4.417296
ODOM 0.000000 0.000000 -0.000367 0.000000 0.000000 0.000000 1780668678.326587 nohost 4.427462
ODOM 0.000000 0.000000 -0.000367 0.000000 0.000000 0.000000 1780668678.335800 nohost 4.436447
ODOM 0.000000 0.000000 -0.000367 0.000000 0.000000 0.000000 1780668678.345978 nohost 4.446652
ODOM 0.000000 0.000000 -0.000367 0.000000 0.000000 0.000000 1780668678.357251 nohost 4.457996
ODOM 0.000000 0.000000 -0.000367 0.000000 0.000000 0.000000 1780668678.366909 nohost 4.468314
FLASER 180 50.00 50.00 50.00 50.00 50.00 50.00 50.00 50.00 50.00 50.00 50.00 50.00 50.00 50.00 50.00 50.00 50.00 50.00 50.00 50.00 50.00 50.00 50.00 50.00 50.00 50.00 50.00 50.00 50.00 50.00 50.00 0.55 0.55 0.53 0.52 0.52 50.00 0.50 0.49 0.49 0.48 0.48 0.48 0.48 0.47 0.47 0.48 50.00 0.47 0.47 0.47 0.48 0.48 0.49 0.49 0.49 0.50 0.51 0.51 0.52 0.53 0.54 0.55 0.56 0.58 0.59 0.60 0.62 50.00 0.58 0.59 2.25 0.61 0.66 0.70 0.72 0.76 0.81 0.87 0.95 1.00 1.09 1.22 1.32 1.54 1.67 2.11 4.81 4.78 4.76 50.00 50.00 5.83 3.91 50.00 2.12 1.82 1.58 1.40 1.25 1.17 1.05 0.95 0.89 0.83 0.80 0.75 0.71 0.67 0.66 0.63 0.60 0.58 0.56 0.54 0.53 0.52 0.51 0.49 0.49 0.48 0.47 0.46 0.45 0.45 50.00 0.44 50.00 0.43 50.00 0.42 0.42 0.42 0.42 50.00 50.00 50.00 0.42 50.00 0.43 0.43 0.43 0.43 0.44 0.44 0.45 50.00 0.46 50.00 50.00 50.00 50.00 50.00 50.00 50.00 50.00 50.00 50.00 50.00 50.00 50.00 50.00 50.00 50.00 50.00 50.00 50.00 50.00 50.00 50.00 50.00 50.00 50.00 50.00 50.00 50.00 50.00 50.00 50.00 50.00 0.000000 0.000000 -0.000367 0.000000 0.000000 -0.000367 1780668678.177076 nohost 4.473575
ODOM 0.000000 0.000000 -0.000367 0.000000 0.000000 0.000000 1780668678.378299 nohost 4.479271
ODOM 0.000000 0.000000 -0.000367 0.000000 0.000000 0.000000 1780668678.388199 nohost 4.489093
ODOM 0.000000 0.000000 -0.000367 0.000000 0.000000 0.000000 1780668678.396019 nohost 4.497055
ODOM 0.000000 0.000000 -0.000367 0.000000 0.000000 0.000000 1780668678.406827 nohost 4.507723
ODOM 0.000000 0.000000 -0.000367 0.000000 0.000000 0.000000 1780668678.416261 nohost 4.516915
ODOM 0.000000 0.000000 -0.000367 0.000000 0.000000 0.000000 1780668678.426469 nohost 4.527288
ODOM 0.000000 0.000000 -0.000367 0.000000 0.000000 0.000000 1780668678.436378 nohost 4.537040
ODOM 0.000000 0.000000 -0.000367 0.000000 0.000000 0.000000 1780668678.447393 nohost 4.548035
ODOM 0.000000 0.000000 -0.000367 0.000000 0.000000 0.000000 1780668678.456503 nohost 4.557815
ODOM 0.000000 0.000000 -0.000367 0.000000 0.000000 0.000000 1780668678.467334 nohost 4.568237
FLASER 180 50.00 50.00 50.00 50.00 50.00 50.00 50.00 50.00 50.00 50.00 50.00 50.00 50.00 50.00 50.00 50.00 50.00 50.00 50.00 50.00 50.00 50.00 50.00 50.00 50.00 50.00 50.00 50.00 50.00 50.00 50.00 0.55 0.55 0.53 0.52 50.00 0.50 0.50 0.50 0.49 0.48 0.48 0.48 0.48 0.47 0.47 0.47 50.00 0.47 0.47 0.48 0.48 0.48 0.49 0.49 0.49 0.50 0.51 0.51 0.52 0.53 0.54 0.55 0.56 0.58 0.59 0.60 0.62 50.00 0.58 0.59 0.60 0.61 0.66 0.70 0.72 0.76 0.81 0.87 0.94 0.99 1.08 1.22 1.32 1.52 1.67 2.11 4.81 4.78 5.91 50.00 50.00 5.83 3.92 50.00 2.13 1.83 1.58 1.40 1.26 1.17 1.05 0.96 0.89 0.83 0.80 0.74 0.70 0.67 0.66 0.63 0.60 0.58 0.56 0.54 50.00 0.53 0.51 0.50 0.49 0.48 0.47 0.46 0.46 0.45 0.44 0.44 50.00 0.43 50.00 0.42 0.42 0.42 0.42 50.00 50.00 50.00 50.00 50.00 50.00 0.43 0.43 50.00 0.44 0.45 0.45 50.00 50.00 50.00 50.00 0.49 50.00 50.00 50.00 50.00 50.00 50.00 50.00 50.00 50.00 50.00 50.00 50.00 50.00 50.00 50.00 50.00 50.00 50.00 50.00 50.00 50.00 50.00 50.00 50.00 50.00 50.00 50.00 50.00 50.00 0.000000 0.000000 -0.000367 0.000000 0.000000 -0.000367 1780668678.278010 nohost 4.573139
ODOM 0.000000 0.000000 -0.000367 0.000000 0.000000 0.000000 1780668678.476419 nohost 4.577137
ODOM 0.000000 0.000000 -0.000367 0.000000 0.000000 0.000000 1780668678.496369 nohost 4.597171
ODOM 0.000000 0.000000 -0.000367 0.000000 0.000000 0.000000 1780668678.502956 nohost 4.603654
ODOM 0.000000 0.000000 -0.000367 0.000000 0.000000 0.000000 1780668678.515054 nohost 4.615715
ODOM 0.000000 0.000000 -0.000367 0.000000 0.000000 0.000000 1780668678.526564 nohost 4.627345
ODOM 0.000000 0.000000 -0.000367 0.000000 0.000000 0.000000 1780668678.533937 nohost 4.634692
ODOM 0.000000 0.000000 -0.000367 0.000000 0.000000 0.000000 1780668678.539629 nohost 4.640202
ODOM 0.000000 0.000000 -0.000367 0.000000 0.000000 0.000000 1780668678.547597 nohost 4.648475
ODOM 0.000000 0.000000 -0.000367 0.000000 0.000000 0.000000 1780668678.566640 nohost 4.667717
ODOM 0.000000 0.000000 -0.000367 0.000000 0.000000 0.000000 1780668678.573453 nohost 4.674162
FLASER 180 50.00 50.00 50.00 50.00 50.00 50.00 50.00 50.00 50.00 50.00 50.00 50.00 50.00 50.00 50.00 50.00 50.00 50.00 50.00 50.00 50.00 50.00 50.00 50.00 50.00 50.00 50.00 50.00 50.00 0.58 50.00 0.55 0.54 0.54 0.52 0.52 50.00 0.50 0.49 0.49 50.00 0.48 0.48 0.48 0.47 0.47 50.00 50.00 0.47 0.47 0.47 0.48 0.48 0.48 50.00 0.50 0.50 0.51 0.51 0.52 0.53 0.54 0.55 0.56 0.58 0.59 0.60 0.61 50.00 2.10 0.59 0.60 0.61 0.66 0.70 0.72 0.76 0.81 0.87 0.94 1.00 1.10 1.23 1.35 1.56 1.69 2.12 4.81 4.78 4.76 50.00 50.00 5.83 3.90 50.00 2.12 1.82 1.58 1.40 1.25 1.17 1.05 0.96 0.90 0.83 0.80 0.75 0.71 0.67 0.66 0.63 0.60 0.58 0.56 0.54 0.53 0.52 0.51 0.50 0.49 0.48 0.47 0.46 0.45 0.45 0.44 0.44 50.00 0.43 0.42 0.42 0.42 0.42 0.42 50.00 50.00 0.42 0.42 50.00 50.00 0.43 0.43 0.43 0.43 0.45 0.45 50.00 50.00 50.00 50.00 0.49 50.00 50.00 50.00 50.00 50.00 50.00 50.00 50.00 50.00 50.00 50.00 50.00 50.00 50.00 50.00 50.00 50.00 50.00 50.00 50.00 50.00 50.00 50.00 50.00 50.00 50.00 50.00 50.00 50.00 0.000000 0.000000 -0.000367 0.000000 0.000000 -0.000367 1780668678.379325 nohost 4.674762
ODOM 0.000000 0.000000 -0.000367 0.000000 0.000000 0.000000 1780668678.585446 nohost 4.686240
ODOM 0.000000 0.000000 -0.000367 0.000000 0.000000 0.000000 1780668678.591686 nohost 4.692747
ODOM 0.000000 0.000000 -0.000367 0.000000 0.000000 0.000000 1780668678.600638 nohost 4.702589
ODOM 0.000000 0.000000 -0.000367 0.000000 0.000000 0.000000 1780668678.611183 nohost 4.711952
ODOM 0.000000 0.000000 -0.000367 0.000000 0.000000 0.000000 1780668678.618662 nohost 4.719536
ODOM 0.000000 0.000000 -0.000367 0.000000 0.000000 0.000000 1780668678.636680 nohost 4.737645
ODOM 0.000000 0.000000 -0.000367 0.000000 0.000000 0.000000 1780668678.644494 nohost 4.745762
ODOM 0.000000 0.000000 -0.000367 0.000000 0.000000 0.000000 1780668678.650930 nohost 4.752628
ODOM 0.000000 0.000000 -0.000367 0.000000 0.000000 0.000000 1780668678.658951 nohost 4.759805
FLASER 180 50.00 50.00 50.00 50.00 50.00 50.00 50.00 50.00 50.00 50.00 50.00 50.00 50.00 50.00 50.00 50.00 50.00 50.00 50.00 50.00 50.00 50.00 50.00 50.00 50.00 50.00 50.00 50.00 50.00 50.00 0.57 50.00 0.55 0.53 0.52 50.00 0.51 0.50 0.50 0.49 0.48 0.48 0.48 0.48 0.47 0.47 50.00 50.00 0.47 0.47 50.00 0.48 0.48 0.49 0.49 0.49 0.50 0.51 0.51 0.52 0.53 0.54 0.55 0.56 0.58 0.59 0.60 0.61 50.00 2.11 0.59 0.60 0.61 0.66 0.70 0.72 0.77 0.81 0.87 0.94 1.00 1.10 1.23 1.32 1.55 1.72 2.12 4.81 4.78 50.00 50.00 50.00 5.83 3.92 50.00 2.20 1.83 1.59 1.40 1.26 1.17 1.05 0.96 0.89 0.83 0.80 0.74 0.70 0.67 0.66 0.63 0.60 0.58 0.56 0.54 50.00 0.52 0.51 0.50 0.49 0.48 0.47 0.46 0.46 0.45 0.44 0.44 50.00 0.43 50.00 0.42 0.42 0.42 0.42 50.00 50.00 50.00 50.00 50.00 50.00 0.43 0.43 50.00 0.43 0.45 0.45 50.00 50.00 50.00 50.00 50.00 50.00 50.00 50.00 50.00 50.00 50.00 50.00 50.00 50.00 50.00 50.00 50.00 50.00 50.00 50.00 50.00 50.00 50.00 50.00 50.00 50.00 50.00 50.00 50.00 50.00 50.00 50.00 50.00 50.00 0.000000 0.000000 -0.000367 0.000000 0.000000 -0.000367 1780668678.479734 nohost 4.776006
ODOM 0.000000 0.000000 -0.000367 0.000000 0.000000 0.000000 1780668678.676228 nohost 4.777313
ODOM 0.000000 0.000000 -0.000367 0.000000 0.000000 0.000000 1780668678.683993 nohost 4.785122
ODOM 0.000000 0.000000 -0.000367 0.000000 0.000000 0.000000 1780668678.690519 nohost 4.791454
ODOM 0.000000 0.000000 -0.000367 0.000000 0.000000 0.000000 1780668678.699271 nohost 4.800463
ODOM 0.000000 0.000000 -0.000367 0.000000 0.000000 0.000000 1780668678.708802 nohost 4.810163
ODOM 0.000000 0.000000 -0.000367 0.000000 0.000000 0.000000 1780668678.727216 nohost 4.828194
ODOM 0.000000 0.000000 -0.000367 0.000000 0.000000 0.000000 1780668678.734624 nohost 4.835268
ODOM 0.000000 0.000000 -0.000367 0.000000 0.000000 0.000000 1780668678.741155 nohost 4.842078
ODOM 0.000000 0.000000 -0.000367 0.000000 0.000000 0.000000 1780668678.749311 nohost 4.850814
ODOM 0.000000 0.000000 -0.000367 0.000000 0.000000 0.000000 1780668678.758594 nohost 4.859314
FLASER 180 50.00 50.00 50.00 50.00 50.00 50.00 50.00 50.00 50.00 50.00 50.00 50.00 50.00 50.00 50.00 50.00 50.00 50.00 50.00 50.00 50.00 50.00 50.00 50.00 50.00 50.00 50.00 50.00 50.00 0.58 50.00 50.00 0.54 0.54 0.52 0.51 50.00 0.50 0.49 0.49 50.00 0.48 0.48 0.48 0.48 0.47 50.00 50.00 0.47 0.47 0.47 0.48 0.48 0.48 50.00 0.49 0.50 0.50 0.51 0.52 0.53 0.54 0.55 0.56 0.58 0.59 0.60 50.00 50.00 2.10 0.59 0.60 0.61 0.66 0.70 0.72 0.77 0.81 0.87 0.95 0.99 1.10 1.22 1.32 1.55 1.72 2.12 4.82 4.78 50.00 50.00 50.00 5.83 3.90 50.00 2.17 1.82 1.58 1.40 1.24 1.17 1.03 0.95 0.89 0.83 0.80 0.75 0.71 0.67 0.66 0.63 0.60 0.58 0.56 0.54 0.53 0.52 0.51 0.50 0.49 0.48 0.47 0.46 0.45 0.45 50.00 0.44 50.00 0.43 0.42 0.42 0.42 0.42 0.42 50.00 50.00 0.42 0.42 50.00 50.00 0.43 0.43 0.43 0.44 0.45 50.00 50.00 50.00 50.00 50.00 0.49 50.00 50.00 50.00 50.00 50.00 50.00 50.00 50.00 50.00 50.00 50.00 50.00 50.00 50.00 50.00 50.00 50.00 50.00 50.00 50.00 50.00 50.00 50.00 50.00 50.00 50.00 50.00 50.00 50.00 0.000000 0.000000 -0.000367 0.000000 0.000000 -0.000367 1780668678.577793 nohost 4.876576
ODOM 0.000000 0.000000 -0.000367 0.000000 0.000000 0.000000 1780668678.776349 nohost 4.877293
ODOM 0.000000 0.000000 -0.000367 0.000000 0.000000 0.000000 1780668678.782008 nohost 4.882711
ODOM 0.000000 0.000000 -0.000367 0.000000 0.000000 0.000000 1780668678.789176 nohost 4.889854
ODOM 0.000000 0.000000 -0.000367 0.000000 0.000000 0.000000 1780668678.806531 nohost 4.907169
ODOM 0.000000 0.000000 -0.000367 0.000000 0.000000 0.000000 1780668678.812417 nohost 4.913175
ODOM 0.000000 0.000000 -0.000367 0.000000 0.000000 0.000000 1780668678.818867 nohost 4.919716
ODOM 0.000000 0.000000 -0.000367 0.000000 0.000000 0.000000 1780668678.836531 nohost 4.937872
ODOM 0.000000 0.000000 -0.000367 0.000000 0.000000 0.000000 1780668678.844103 nohost 4.945820
ODOM 0.000000 0.000000 -0.000367 0.000000 0.000000 0.000000 1780668678.852358 nohost 4.953716
ODOM 0.000000 0.000000 -0.000367 0.000000 0.000000 0.000000 1780668678.861810 nohost 4.963918
ODOM 0.000000 0.000000 -0.000367 0.000000 0.000000 0.000000 1780668678.872250 nohost 4.973884
FLASER 180 50.00 50.00 50.00 50.00 50.00 50.00 50.00 50.00 50.00 50.00 50.00 50.00 50.00 50.00 50.00 50.00 50.00 50.00 50.00 50.00 50.00 50.00 50.00 50.00 50.00 50.00 50.00 50.00 50.00 50.00 50.00 50.00 0.54 0.53 0.53 0.51 0.51 0.50 0.50 0.49 0.49 50.00 0.48 0.47 0.47 0.47 50.00 0.47 0.47 0.47 50.00 0.48 50.00 0.48 50.00 0.49 0.50 0.50 0.51 0.52 0.53 0.54 0.55 0.57 0.58 0.59 0.60 50.00 50.00 2.11 0.59 0.60 0.61 0.66 0.70 0.72 0.76 0.81 0.87 0.94 0.99 1.10 1.24 1.32 1.55 1.72 2.12 4.82 4.78 5.91 50.00 50.00 5.83 3.93 50.00 2.23 1.86 1.58 1.40 1.25 1.15 1.04 0.96 0.88 0.83 0.80 0.75 0.71 0.67 0.66 0.63 0.60 0.58 0.56 0.54 50.00 0.52 0.51 0.49 0.49 0.48 0.47 0.46 0.45 0.45 50.00 0.44 50.00 0.43 50.00 0.42 0.42 0.42 0.42 50.00 50.00 50.00 0.42 50.00 0.42 0.42 0.43 0.43 0.44 0.44 50.00 50.00 0.46 50.00 50.00 50.00 50.00 50.00 50.00 50.00 50.00 50.00 50.00 50.00 50.00 50.00 50.00 50.00 50.00 50.00 50.00 50.00 50.00 50.00 50.00 50.00 50.00 50.00 50.00 50.00 50.00 50.00 50.00 50.00 50.00 0.000000 0.000000 -0.000367 0.000000 0.000000 -0.000367 1780668678.678907 nohost 4.975259
ODOM 0.000000 0.000000 -0.000367 0.000000 0.000000 0.000000 1780668678.882428 nohost 4.984593
ODOM 0.000000 0.000000 -0.000367 0.000000 0.000000 0.000000 1780668678.892018 nohost 4.992901
ODOM 0.000000 0.000000 -0.000367 0.000000 0.000000 0.000000 1780668678.900487 nohost 5.001769
ODOM 0.000000 0.000000 -0.000349 0.000000 0.001745 0.000000 1780668678.909831 nohost 5.010748
ODOM 0.000000 0.000000 -0.000349 0.000000 0.000000 0.000000 1780668678.927933 nohost 5.029319
ODOM 0.000000 0.000000 -0.000349 0.000000 0.000000 0.000000 1780668678.936203 nohost 5.037446
ODOM 0.000000 0.000000 -0.000349 0.000000 0.000000 0.000000 1780668678.942355 nohost 5.043941
ODOM 0.000000 0.000000 -0.000349 0.000000 0.000000 0.000000 1780668678.952805 nohost 5.054481
ODOM 0.000000 0.000000 -0.000349 0.000000 0.000000 0.000000 1780668678.960098 nohost 5.061084
FLASER 180 50.00 50.00 50.00 50.00 50.00 50.00 50.00 50.00 50.00 50.00 50.00 50.00 50.00 50.00 50.00 50.00 50.00 50.00 50.00 50.00 50.00 50.00 50.00 50.00 50.00 50.00 50.00 50.00 50.00 50.00 50.00 0.55 0.54 0.54 0.52 0.52 50.00 0.51 0.49 0.49 50.00 0.48 0.48 0.48 0.48 0.47 50.00 50.00 0.47 0.47 0.47 0.48 0.48 0.48 50.00 0.49 0.50 0.50 0.51 0.52 0.53 0.54 0.55 0.56 0.58 0.59 0.60 50.00 50.00 2.10 0.59 0.60 0.61 0.66 0.69 0.72 0.77 0.81 0.87 0.94 1.00 1.10 1.23 1.32 1.55 1.72 2.12 4.81 4.78 4.76 50.00 50.00 5.83 3.92 50.00 2.19 1.83 1.59 1.40 1.26 1.17 1.05 0.96 0.89 0.83 0.80 0.74 0.70 0.68 0.66 0.63 0.60 0.58 0.56 0.54 50.00 0.52 0.51 0.49 0.49 0.48 0.47 0.46 0.45 0.45 0.44 0.44 50.00 0.43 0.42 0.42 0.42 0.42 0.42 50.00 50.00 0.42 0.42 50.00 50.00 0.43 0.43 50.00 0.44 0.45 50.00 50.00 50.00 50.00 50.00 0.49 50.00 50.00 50.00 50.00 50.00 50.00 50.00 50.00 50.00 50.00 50.00 50.00 50.00 50.00 50.00 50.00 50.00 50.00 50.00 50.00 50.00 50.00 50.00 50.00 50.00 50.00 50.00 50.00 50.00 0.000000 0.000000 -0.000349 0.000000 0.000000 -0.000349 1780668678.779962 nohost 5.076033
ODOM 0.000000 0.000000 -0.000349 0.000000 0.000000 0.000000 1780668678.976498 nohost 5.077324
ODOM 0.000000 0.000000 -0.000349 0.000000 0.000000 0.000000 1780668678.984296 nohost 5.085444
ODOM 0.000000 0.000000 -0.000349 0.000000 0.000000 0.000000 1780668678.991482 nohost 5.092550
ODOM 0.000000 0.000000 -0.000349 0.000000 0.000000 0.000000 1780668679.007495 nohost 5.108429
ODOM 0.000000 0.000000 -0.000349 0.000000 0.000000 0.000000 1780668679.014183 nohost 5.115353
ODOM 0.000000 0.000000 -0.000349 0.000000 0.000000 0.000000 1780668679.023083 nohost 5.124088
ODOM 0.000000 0.000000 -0.000349 0.000000 0.000000 0.000000 1780668679.031097 nohost 5.132112
ODOM 0.000000 0.000000 -0.000349 0.000000 0.000000 0.000000 1780668679.046464 nohost 5.147912
ODOM 0.000000 0.000000 -0.000349 0.000000 0.000000 0.000000 1780668679.052984 nohost 5.154152
ODOM 0.000000 0.000000 -0.000349 0.000000 0.000000 0.000000 1780668679.061186 nohost 5.162494
ODOM 0.000000 0.000000 -0.000349 0.000000 0.000000 0.000000 1780668679.069440 nohost 5.170097
FLASER 180 50.00 50.00 50.00 50.00 50.00 50.00 50.00 50.00 50.00 50.00 50.00 50.00 50.00 50.00 50.00 50.00 50.00 50.00 50.00 50.00 50.00 50.00 50.00 50.00 50.00 50.00 50.00 50.00 50.00 50.00 50.00 50.00 0.54 0.54 0.52 0.51 0.51 0.50 0.49 0.49 50.00 50.00 0.48 0.47 0.47 0.47 50.00 0.47 0.47 0.47 0.47 0.48 50.00 0.48 50.00 0.49 0.50 0.50 0.51 0.52 0.53 0.54 0.55 0.57 0.58 0.59 0.60 50.00 50.00 2.10 0.59 0.60 0.61 0.66 0.69 0.72 0.76 0.82 0.88 0.95 1.00 1.09 1.22 1.32 1.51 1.67 2.12 2.86 4.78 5.91 50.00 50.00 4.74 3.93 50.00 2.17 1.86 1.58 1.40 1.25 1.15 1.04 0.96 0.89 0.83 0.80 0.75 0.71 0.67 0.66 0.63 0.60 0.58 0.56 0.54 0.53 0.52 0.51 0.50 0.49 0.48 0.47 0.46 0.45 0.45 50.00 0.44 0.43 0.43 50.00 0.42 0.42 0.42 0.42 50.00 50.00 50.00 0.42 50.00 0.42 0.42 0.43 0.43 0.44 0.44 50.00 50.00 0.46 50.00 50.00 50.00 50.00 50.00 50.00 50.00 50.00 50.00 50.00 50.00 50.00 50.00 50.00 50.00 50.00 50.00 50.00 50.00 50.00 50.00 50.00 50.00 50.00 50.00 50.00 50.00 50.00 50.00 50.00 50.00 50.00 0.000000 0.000000 -0.000349 0.000000 0.000000 -0.000349 1780668678.878451 nohost 5.176819
ODOM 0.000000 0.000000 -0.000349 0.000000 0.000000 0.000000 1780668679.086771 nohost 5.187361
ODOM 0.000000 0.000000 -0.000349 0.000000 0.000000 0.000000 1780668679.092620 nohost 5.194501
ODOM 0.000000 0.000000 -0.000349 0.000000 0.000000 0.000000 1780668679.100493 nohost 5.201760
ODOM 0.000000 0.000000 -0.000349 0.000000 0.000000 0.000000 1780668679.116452 nohost 5.217498
ODOM 0.000000 0.000000 -0.000349 0.000000 0.000000 0.000000 1780668679.129897 nohost 5.230825
ODOM 0.000000 0.000000 -0.000349 0.000000 0.000000 0.000000 1780668679.137467 nohost 5.238718
ODOM 0.000000 0.000000 -0.000349 0.000000 0.000000 0.000000 1780668679.146937 nohost 5.247820
ODOM 0.000000 0.000000 -0.000349 0.000000 0.000000 0.000000 1780668679.155767 nohost 5.257102
ODOM 0.000000 0.000000 -0.000349 0.000000 0.000000 0.000000 1780668679.163868 nohost 5.265448
ODOM 0.000000 0.000000 -0.000349 0.000000 0.000000 0.000000 1780668679.172234 nohost 5.273354
FLASER 180 50.00 50.00 50.00 50.00 50.00 50.00 50.00 50.00 50.00 50.00 50.00 50.00 50.00 50.00 50.00 50.00 50.00 50.00 50.00 50.00 50.00 50.00 50.00 50.00 50.00 50.00 50.00 50.00 50.00 50.00 50.00 50.00 0.54 0.53 0.52 0.51 0.51 0.50 0.50 0.49 0.49 50.00 0.47 0.47 0.47 0.47 50.00 0.47 0.47 0.47 0.47 0.48 50.00 0.48 50.00 0.49 0.50 0.50 0.51 0.52 0.53 0.54 0.55 0.56 0.58 0.59 0.60 50.00 50.00 2.11 0.59 0.60 0.61 0.66 0.69 0.72 0.76 0.82 0.88 0.95 1.00 1.09 1.22 1.33 1.54 1.70 2.12 4.81 4.78 4.76 50.00 50.00 4.73 3.93 50.00 2.17 1.86 1.58 1.40 1.23 1.15 1.04 0.96 0.89 0.83 0.80 0.75 0.71 0.67 0.65 0.63 0.60 0.58 0.56 0.54 0.53 0.52 0.51 0.49 0.49 0.48 0.47 0.46 0.45 0.45 50.00 0.44 0.43 0.43 50.00 50.00 0.42 0.42 0.42 50.00 50.00 50.00 0.42 50.00 0.42 0.42 0.43 0.43 0.44 0.44 50.00 50.00 0.46 50.00 50.00 50.00 50.00 50.00 50.00 50.00 50.00 50.00 50.00 50.00 50.00 50.00 50.00 50.00 50.00 50.00 50.00 50.00 50.00 50.00 50.00 50.00 50.00 50.00 50.00 50.00 50.00 50.00 50.00 50.00 50.00 0.000000 0.000000 -0.000349 0.000000 0.000000 -0.000349 1780668678.979105 nohost 5.278484
ODOM 0.000000 0.000000 -0.000349 0.000000 0.000000 0.000000 1780668679.182412 nohost 5.283375
ODOM 0.000000 0.000000 -0.000349 0.000000 0.000000 0.000000 1780668679.190061 nohost 5.290960
ODOM 0.000000 0.000000 -0.000349 0.000000 0.000000 0.000000 1780668679.206205 nohost 5.307776
ODOM 0.000000 0.000000 -0.000349 0.000000 0.000000 0.000000 1780668679.214101 nohost 5.315326
ODOM 0.000000 0.000000 -0.000349 0.000000 0.000000 0.000000 1780668679.221465 nohost 5.322097
ODOM 0.000000 0.000000 -0.000349 0.000000 0.000000 0.000000 1780668679.236133 nohost 5.337203
ODOM 0.000000 0.000000 -0.000349 0.000000 0.000000 0.000000 1780668679.250249 nohost 5.351278
ODOM 0.000000 0.000000 -0.000349 0.000000 0.000000 0.000000 1780668679.258767 nohost 5.359701
ODOM 0.000000 0.000000 -0.000349 0.000000 0.000000 0.000000 1780668679.266400 nohost 5.367650
ODOM 0.000000 0.000000 -0.000349 0.000000 0.000000 0.000000 1780668679.275463 nohost 5.376814
FLASER 180 50.00 50.00 50.00 50.00 50.00 50.00 50.00 50.00 50.00 50.00 50.00 50.00 50.00 50.00 50.00 50.00 50.00 50.00 50.00 50.00 50.00 50.00 50.00 50.00 50.00 50.00 50.00 50.00 0.60 50.00 0.57 50.00 0.55 0.53 0.52 50.00 50.00 0.50 0.50 50.00 0.48 50.00 0.48 0.47 0.47 0.47 50.00 50.00 0.47 0.47 0.48 0.48 50.00 0.49 0.49 0.49 0.50 0.51 0.51 0.52 0.53 0.54 0.55 0.56 0.58 0.59 0.60 0.62 50.00 2.11 0.59 0.60 0.61 0.66 0.69 0.72 0.76 0.81 0.88 0.95 1.00 1.09 1.22 1.32 1.51 1.67 2.11 2.86 4.78 5.91 50.00 50.00 4.70 3.93 50.00 2.22 1.85 1.60 1.39 1.25 1.16 1.05 0.96 0.88 0.83 0.80 0.74 0.71 0.67 0.65 0.63 0.60 0.58 0.56 0.54 50.00 0.52 0.51 0.50 0.49 0.48 0.47 0.46 0.46 0.45 0.44 0.44 50.00 0.43 50.00 0.42 0.42 0.42 0.42 50.00 50.00 50.00 50.00 50.00 50.00 0.43 0.43 0.44 0.43 0.45 0.45 50.00 50.00 50.00 50.00 50.00 50.00 50.00 50.00 50.00 50.00 50.00 50.00 50.00 50.00 50.00 50.00 50.00 50.00 50.00 50.00 50.00 50.00 50.00 50.00 50.00 50.00 50.00 50.00 50.00 50.00 50.00 50.00 50.00 50.00 0.000000 0.000000 -0.000349 0.000000 0.000000 -0.000349 1780668679.080167 nohost 5.378407
ODOM 0.000000 0.000000 -0.000349 0.000000 0.000000 0.000000 1780668679.282707 nohost 5.383412
ODOM 0.000000 0.000000 -0.000349 0.000000 0.000000 0.000000 1780668679.292804 nohost 5.393657
ODOM 0.000000 0.000000 -0.000349 0.000000 0.000000 0.000000 1780668679.301437 nohost 5.403142
ODOM 0.000000 0.000000 -0.000349 0.000000 0.000000 0.000000 1780668679.312016 nohost 5.412770
ODOM 0.000000 0.000000 -0.000349 0.000000 0.000000 0.000000 1780668679.322692 nohost 5.423545
ODOM 0.000000 0.000000 -0.000349 0.000000 0.000000 0.000000 1780668679.330934 nohost 5.431757
ODOM 0.000000 0.000000 -0.000349 0.000000 0.000000 0.000000 1780668679.346753 nohost 5.448261
ODOM 0.000000 0.000000 -0.000349 0.000000 0.000000 0.000000 1780668679.356355 nohost 5.458314
ODOM 0.000000 0.000000 -0.000349 0.000000 0.000000 0.000000 1780668679.364960 nohost 5.466542
ODOM 0.000000 0.000000 -0.000349 0.000000 0.000000 0.000000 1780668679.374195 nohost 5.475041
FLASER 180 50.00 50.00 50.00 50.00 50.00 50.00 50.00 50.00 50.00 50.00 50.00 50.00 50.00 50.00 50.00 50.00 50.00 50.00 50.00 50.00 50.00 50.00 50.00 50.00 50.00 50.00 50.00 50.00 50.00 0.58 50.00 50.00 0.54 0.54 0.52 0.51 0.51 0.50 0.49 0.49 50.00 0.48 0.48 0.47 0.47 0.47 50.00 0.47 0.47 0.47 0.47 0.48 0.48 0.48 50.00 0.49 0.50 0.51 0.51 0.52 0.53 0.54 0.55 0.56 0.58 0.59 0.60 0.61 50.00 2.11 0.59 0.60 0.61 0.66 0.69 0.72 0.76 0.81 0.87 0.94 1.00 1.10 1.21 1.35 1.55 1.72 2.12 4.81 4.78 50.00 50.00 50.00 5.84 3.92 50.00 2.20 1.84 1.59 1.40 1.26 1.17 1.05 0.96 0.89 0.83 0.80 0.74 0.70 0.67 0.66 0.63 0.60 0.58 0.56 0.54 50.00 0.52 0.51 0.50 0.49 0.48 0.47 0.46 0.45 0.45 0.44 0.44 50.00 0.43 0.42 0.42 0.42 0.42 0.42 50.00 50.00 0.42 0.42 50.00 50.00 0.43 0.43 0.43 0.43 0.45 50.00 50.00 50.00 50.00 50.00 0.49 50.00 50.00 50.00 50.00 50.00 50.00 50.00 50.00 50.00 50.00 50.00 50.00 50.00 50.00 50.00 50.00 50.00 50.00 50.00 50.00 50.00 50.00 50.00 50.00 50.00 50.00 50.00 50.00 50.00 0.000000 0.000000 -0.000349 0.000000 0.000000 -0.000349 1780668679.180803 nohost 5.480468
ODOM 0.000000 0.000000 -0.000349 0.000000 0.000000 0.000000 1780668679.386535 nohost 5.488398
ODOM 0.000000 0.000000 -0.000349 0.000000 0.000000 0.000000 1780668679.395205 nohost 5.496656
ODOM 0.000000 0.000000 -0.000349 0.000000 0.000000 0.000000 1780668679.404030 nohost 5.505379
ODOM 0.000000 0.000000 -0.000349 0.000000 0.000000 0.000000 1780668679.411878 nohost 5.513767
ODOM 0.000000 0.000000 -0.000349 0.000000 0.000000 0.000000 1780668679.421967 nohost 5.522768
ODOM 0.000000 0.000000 -0.000349 0.000000 0.000000 0.000000 1780668679.436949 nohost 5.538113
ODOM 0.000000 0.000000 -0.000349 0.000000 0.000000 0.000000 1780668679.444120 nohost 5.545023
ODOM 0.000000 0.000000 -0.000349 0.000000 0.000000 0.000000 1780668679.452989 nohost 5.553770
ODOM 0.000000 0.000000 -0.000349 0.000000 0.000000 0.000000 1780668679.461509 nohost 5.562510
ODOM 0.000000 0.000000 -0.000349 0.000000 0.000000 0.000000 1780668679.476711 nohost 5.578046
FLASER 180 50.00 50.00 50.00 50.00 50.00 50.00 50.00 50.00 50.00 50.00 50.00 50.00 50.00 50.00 50.00 50.00 50.00 50.00 50.00 50.00 50.00 50.00 50.00 50.00 50.00 50.00 50.00 50.00 50.00 0.58 50.00 50.00 0.54 0.54 0.52 0.51 50.00 0.50 0.49 0.49 0.49 0.48 0.48 0.48 0.48 0.47 50.00 50.00 0.47 0.47 0.47 0.48 0.48 0.48 50.00 0.49 0.50 0.50 0.51 0.52 0.53 0.54 0.55 0.56 0.58 0.59 0.60 0.61 50.00 2.09 0.59 0.60 0.61 0.66 0.69 0.72 0.76 0.81 0.88 0.94 1.00 1.09 1.22 1.33 1.54 1.70 2.12 4.81 4.78 4.76 50.00 50.00 5.83 3.91 50.00 50.00 1.82 1.58 1.40 1.24 1.17 1.04 0.95 0.89 0.83 0.80 0.75 0.71 0.68 0.66 0.63 0.60 0.58 0.56 0.54 0.53 0.52 0.51 0.50 0.49 0.48 0.47 0.46 0.45 0.45 0.44 0.44 0.43 0.43 50.00 0.42 0.42 0.42 0.42 50.00 50.00 50.00 0.42 50.00 50.00 0.42 0.43 0.43 0.44 0.44 50.00 50.00 50.00 50.00 50.00 50.00 50.00 50.00 50.00 50.00 50.00 50.00 50.00 50.00 50.00 50.00 50.00 50.00 50.00 50.00 50.00 50.00 50.00 50.00 50.00 50.00 50.00 50.00 50.00 50.00 50.00 50.00 50.00 50.00 50.00 0.000000 0.000000 -0.000349 0.000000 0.000000 -0.000349 1780668679.281529 nohost 5.580255
ODOM 0.000000 0.000000 -0.000349 0.000000 0.000000 0.000000 1780668679.490915 nohost 5.592328
ODOM 0.000000 0.000000 -0.000349 0.000000 0.000000 0.000000 1780668679.499617 nohost 5.600454
ODOM 0.000000 0.000000 -0.000349 0.000000 0.000000 0.000000 1780668679.505754 nohost 5.607084
ODOM 0.000000 0.000000 -0.000349 0.000000 0.000000 0.000000 1780668679.513341 nohost 5.614125
ODOM 0.000000 0.000000 -0.000349 0.000000 0.000000 0.000000 1780668679.521897 nohost 5.622945
ODOM 0.000000 0.000000 -0.000367 0.000000 -0.001745 0.000000 1780668679.538146 nohost 5.639452
ODOM 0.000000 0.000000 -0.000367 0.000000 0.000000 0.000000 1780668679.548590 nohost 5.649837
ODOM 0.000000 0.000000 -0.000367 0.000000 0.000000 0.000000 1780668679.558100 nohost 5.660689
ODOM 0.000000 0.000000 -0.000367 0.000000 0.000000 0.000000 1780668679.566597 nohost 5.667586
ODOM 0.000000 0.000000 -0.000367 0.000000 0.000000 0.000000 1780668679.573234 nohost 5.674416
FLASER 180 50.00 50.00 50.00 50.00 50.00 50.00 50.00 50.00 50.00 50.00 50.00 50.00 50.00 50.00 50.00 50.00 50.00 50.00 50.00 50.00 50.00 50.00 50.00 50.00 50.00 50.00 50.00 50.00 50.00 0.58 50.00 50.00 0.54 0.53 50.00 0.51 0.51 0.50 0.49 0.49 0.49 50.00 0.47 0.47 0.47 0.47 50.00 0.47 0.47 0.47 0.47 0.48 50.00 0.48 50.00 0.49 0.50 0.50 0.51 0.52 0.53 0.54 0.55 0.56 0.58 0.59 0.60 50.00 50.00 2.10 0.59 0.60 0.61 0.66 0.69 0.72 0.76 0.81 0.88 0.95 0.99 1.09 1.22 1.32 1.55 1.71 2.12 4.82 4.78 5.90 50.00 50.00 50.00 3.93 50.00 2.22 1.85 1.60 1.41 1.25 1.16 1.05 0.96 0.88 0.83 0.80 0.74 0.71 0.67 0.65 0.63 0.60 0.58 0.56 0.54 50.00 0.52 0.51 0.50 0.49 0.48 0.47 0.46 0.46 0.45 0.44 0.44 50.00 0.43 50.00 0.42 0.42 0.42 0.42 50.00 50.00 50.00 50.00 50.00 50.00 0.43 0.43 0.44 0.43 0.45 0.45 50.00 50.00 50.00 50.00 0.49 50.00 50.00 50.00 50.00 50.00 50.00 50.00 50.00 50.00 50.00 50.00 50.00 50.00 50.00 50.00 50.00 50.00 50.00 50.00 50.00 50.00 50.00 50.00 50.00 50.00 50.00 50.00 50.00 50.00 0.000000 0.000000 -0.000367 0.000000 0.000000 -0.000367 1780668679.380141 nohost 5.680539
ODOM 0.000000 0.000000 -0.000367 0.000000 0.000000 0.000000 1780668679.582237 nohost 5.683404
ODOM 0.000000 0.000000 -0.000367 0.000000 0.000000 0.000000 1780668679.595971 nohost 5.697285
ODOM 0.000000 0.000000 -0.000367 0.000000 0.000000 0.000000 1780668679.603362 nohost 5.703994
ODOM 0.000000 0.000000 -0.000367 0.000000 0.000000 0.000000 1780668679.615639 nohost 5.716963
ODOM 0.000000 0.000000 -0.000367 0.000000 0.000000 0.000000 1780668679.622899 nohost 5.723749
ODOM 0.000000 0.000000 -0.000367 0.000000 0.000000 0.000000 1780668679.635333 nohost 5.736300
ODOM 0.000000 0.000000 -0.000367 0.000000 0.000000 0.000000 1780668679.642174 nohost 5.743737
ODOM 0.000000 0.000000 -0.000367 0.000000 0.000000 0.000000 1780668679.655405 nohost 5.756684
ODOM 0.000000 0.000000 -0.000367 0.000000 0.000000 0.000000 1780668679.663980 nohost 5.765621
ODOM 0.000000 0.000000 -0.000367 0.000000 0.000000 0.000000 1780668679.672980 nohost 5.773919
FLASER 180 50.00 50.00 50.00 50.00 50.00 50.00 50.00 50.00 50.00 50.00 50.00 50.00 50.00 50.00 50.00 50.00 50.00 50.00 50.00 50.00 50.00 50.00 50.00 50.00 50.00 50.00 50.00 50.00 50.00 50.00 50.00 0.55 0.54 0.54 0.52 0.52 50.00 0.50 0.49 0.49 50.00 0.48 0.48 0.48 0.48 0.47 50.00 50.00 0.47 0.47 0.47 0.48 0.48 0.48 50.00 0.49 0.50 0.50 0.51 0.52 0.53 0.54 0.55 0.56 0.58 0.59 0.60 50.00 50.00 2.11 0.59 0.60 0.61 0.66 0.69 0.72 0.76 0.81 0.87 0.94 0.99 1.10 1.23 1.32 1.55 1.72 2.12 4.81 4.78 50.00 50.00 50.00 5.83 3.92 50.00 2.20 1.83 1.59 1.40 1.26 1.17 1.05 0.96 0.89 0.83 0.80 0.74 0.71 0.67 0.66 0.63 0.60 0.58 0.56 0.54 50.00 0.52 0.51 0.50 0.49 0.48 0.47 0.46 0.46 0.45 0.44 0.44 50.00 0.43 50.00 0.42 0.42 0.42 0.42 50.00 50.00 50.00 0.42 50.00 50.00 0.43 0.43 0.44 0.43 0.45 0.45 50.00 50.00 50.00 50.00 0.49 50.00 50.00 50.00 50.00 50.00 50.00 50.00 50.00 50.00 50.00 50.00 50.00 50.00 50.00 50.00 50.00 50.00 50.00 50.00 50.00 50.00 50.00 50.00 50.00 50.00 50.00 50.00 50.00 50.00 0.000000 0.000000 -0.000367 0.000000 0.000000 -0.000367 1780668679.581967 nohost 5.782220
ODOM 0.000000 0.000000 -0.000367 0.000000 0.000000 0.000000 1780668679.685940 nohost 5.787817
ODOM 0.000000 0.000000 -0.000367 0.000000 0.000000 0.000000 1780668679.694037 nohost 5.795182
ODOM 0.000000 0.000000 -0.000367 0.000000 0.000000 0.000000 1780668679.706018 nohost 5.807176
